%time,field.header.seq,field.header.stamp,field.header.frame_id,field.orientation.x,field.orientation.y,field.orientation.z,field.orientation.w,field.orientation_covariance0,field.orientation_covariance1,field.orientation_covariance2,field.orientation_covariance3,field.orientation_covariance4,field.orientation_covariance5,field.orientation_covariance6,field.orientation_covariance7,field.orientation_covariance8,field.angular_velocity.x,field.angular_velocity.y,field.angular_velocity.z,field.angular_velocity_covariance0,field.angular_velocity_covariance1,field.angular_velocity_covariance2,field.angular_velocity_covariance3,field.angular_velocity_covariance4,field.angular_velocity_covariance5,field.angular_velocity_covariance6,field.angular_velocity_covariance7,field.angular_velocity_covariance8,field.linear_acceleration.x,field.linear_acceleration.y,field.linear_acceleration.z,field.linear_acceleration_covariance0,field.linear_acceleration_covariance1,field.linear_acceleration_covariance2,field.linear_acceleration_covariance3,field.linear_acceleration_covariance4,field.linear_acceleration_covariance5,field.linear_acceleration_covariance6,field.linear_acceleration_covariance7,field.linear_acceleration_covariance8
1716886172553360020,88390,1716886172552514170,imu_link,0.00304447284518,0.0151057344789,0.639970966746,0.768244563725,0.0,0.0,0.0,0.0,0.0,0.0,0.0,0.0,0.0,-0.000208707198501,-0.000483800203432,-4.92579095214e-05,0.0,0.0,0.0,0.0,0.0,0.0,0.0,0.0,0.0,0.00320397175,0.00195354215625,9.80942010846,0.0,0.0,0.0,0.0,0.0,0.0,0.0,0.0,0.0
1716886172718246209,88391,1716886172717615456,imu_link,-1.53846953651e-05,-0.00118477247957,0.640044688795,0.768336770188,0.0,0.0,0.0,0.0,0.0,0.0,0.0,0.0,0.0,-0.000208707198501,-0.00101591286984,-4.92579095214e-05,0.0,0.0,0.0,0.0,0.0,0.0,0.0,0.0,0.0,0.0030819014375,0.00097697965625,9.80905389752,0.0,0.0,0.0,0.0,0.0,0.0,0.0,0.0,0.0
1716886172884636959,88392,1716886172882524526,imu_link,0.00294641939582,0.0149478021415,0.639965239533,0.768252806057,0.0,0.0,0.0,0.0,0.0,0.0,0.0,0.0,0.0,-0.000740819864907,-0.00101591286984,-4.92579095214e-05,0.0,0.0,0.0,0.0,0.0,0.0,0.0,0.0,0.0,0.0030819014375,0.00231975309375,9.80966424909,0.0,0.0,0.0,0.0,0.0,0.0,0.0,0.0,0.0
1716886173049177841,88393,1716886173047522821,imu_link,-3.42851474851e-05,-0.00138090762618,0.640037903514,0.768342094372,0.0,0.0,0.0,0.0,0.0,0.0,0.0,0.0,0.0,-0.000740819864907,-0.00101591286984,-4.92579095214e-05,0.0,0.0,0.0,0.0,0.0,0.0,0.0,0.0,0.0,0.00338707721875,0.0017704366875,9.80948114362,0.0,0.0,0.0,0.0,0.0,0.0,0.0,0.0,0.0
1716886173213456756,88394,1716886173212569060,imu_link,0.00308384698625,0.0147639007793,0.639959794793,0.768260358323,0.0,0.0,0.0,0.0,0.0,0.0,0.0,0.0,0.0,-0.000208707198501,-0.00101591286984,-4.92579095214e-05,0.0,0.0,0.0,0.0,0.0,0.0,0.0,0.0,0.0,0.0040584639375,0.00195354215625,9.80972528424,0.0,0.0,0.0,0.0,0.0,0.0,0.0,0.0,0.0
1716886173380499293,88395,1716886173378610638,imu_link,-7.86032445146e-05,-0.00157850328053,0.639997080119,0.768375715121,0.0,0.0,0.0,0.0,0.0,0.0,0.0,0.0,0.0,-0.000208707198501,-0.000483800203432,-0.00058137051772,0.0,0.0,0.0,0.0,0.0,0.0,0.0,0.0,0.0,0.00363121784375,0.001892507,9.8097863194,0.0,0.0,0.0,0.0,0.0,0.0,0.0,0.0,0.0
1716886173545204350,88396,1716886173543534479,imu_link,0.00288985680472,0.0145781588573,0.639921557754,0.768296509125,0.0,0.0,0.0,0.0,0.0,0.0,0.0,0.0,0.0,-0.000208707198501,-0.00101591286984,-4.92579095214e-05,0.0,0.0,0.0,0.0,0.0,0.0,0.0,0.0,0.0,0.003692253,0.0017704366875,9.8097863194,0.0,0.0,0.0,0.0,0.0,0.0,0.0,0.0,0.0
1716886173710242628,88397,1716886173708541718,imu_link,-7.32517671602e-05,-0.00174064357834,0.639989950677,0.768381303668,0.0,0.0,0.0,0.0,0.0,0.0,0.0,0.0,0.0,-0.000208707198501,-0.00101591286984,-4.92579095214e-05,0.0,0.0,0.0,0.0,0.0,0.0,0.0,0.0,0.0,0.0030819014375,0.002136647625,9.80996942487,0.0,0.0,0.0,0.0,0.0,0.0,0.0,0.0,0.0
1716886173875493647,88398,1716886173873532823,imu_link,0.00232052029926,0.0145249020084,0.639882665411,0.768331840362,0.0,0.0,0.0,0.0,0.0,0.0,0.0,0.0,0.0,-0.000208707198501,-0.00101591286984,-0.00058137051772,0.0,0.0,0.0,0.0,0.0,0.0,0.0,0.0,0.0,0.0030819014375,0.00170940153125,9.81015253034,0.0,0.0,0.0,0.0,0.0,0.0,0.0,0.0,0.0
1716886174040517827,88399,1716886174038518943,imu_link,-7.62612070773e-05,-0.00192446058321,0.639882187224,0.768470609138,0.0,0.0,0.0,0.0,0.0,0.0,0.0,0.0,0.0,-0.000740819864907,-0.00101591286984,-0.00111348312592,0.0,0.0,0.0,0.0,0.0,0.0,0.0,0.0,0.0,0.0030819014375,0.00195354215625,9.81045770612,0.0,0.0,0.0,0.0,0.0,0.0,0.0,0.0,0.0
1716886174204167239,88400,1716886174203518830,imu_link,0.00196530059852,0.0144105017679,0.639810551437,0.76839503727,0.0,0.0,0.0,0.0,0.0,0.0,0.0,0.0,0.0,-0.000208707198501,-0.000483800203432,-4.92579095214e-05,0.0,0.0,0.0,0.0,0.0,0.0,0.0,0.0,0.0,0.00265465534375,0.0017704366875,9.8097863194,0.0,0.0,0.0,0.0,0.0,0.0,0.0,0.0,0.0
1716886174370520159,88401,1716886174368535005,imu_link,-4.67089790594e-05,-0.00209679497827,0.639875888837,0.768475405042,0.0,0.0,0.0,0.0,0.0,0.0,0.0,0.0,0.0,-0.000740819864907,-0.00101591286984,-4.92579095214e-05,0.0,0.0,0.0,0.0,0.0,0.0,0.0,0.0,0.0,0.003448112375,0.0017704366875,9.80942010846,0.0,0.0,0.0,0.0,0.0,0.0,0.0,0.0,0.0
1716886174535520573,88402,1716886174533526198,imu_link,0.00148096976854,0.0142754590252,0.639772798138,0.768430077991,0.0,0.0,0.0,0.0,0.0,0.0,0.0,0.0,0.0,-0.000208707198501,-0.00101591286984,-0.00058137051772,0.0,0.0,0.0,0.0,0.0,0.0,0.0,0.0,0.0,0.002959831125,0.00097697965625,9.8097863194,0.0,0.0,0.0,0.0,0.0,0.0,0.0,0.0,0.0
1716886174699224022,88403,1716886174698592554,imu_link,-1.44189954112e-05,-0.00226207409586,0.639801543307,0.768536835809,0.0,0.0,0.0,0.0,0.0,0.0,0.0,0.0,0.0,-0.000208707198501,-0.00101591286984,-0.00058137051772,0.0,0.0,0.0,0.0,0.0,0.0,0.0,0.0,0.0,0.002959831125,0.001160085125,9.80966424909,0.0,0.0,0.0,0.0,0.0,0.0,0.0,0.0,0.0
1716886174866472805,88404,1716886174865531626,imu_link,0.00125950416331,0.0143028622811,0.639697928253,0.768492291678,0.0,0.0,0.0,0.0,0.0,0.0,0.0,0.0,0.0,-0.000740819864907,-0.00101591286984,-0.00058137051772,0.0,0.0,0.0,0.0,0.0,0.0,0.0,0.0,0.0,0.0028377608125,0.0015262960625,9.8097863194,0.0,0.0,0.0,0.0,0.0,0.0,0.0,0.0,0.0
1716886175031494094,88405,1716886175030537473,imu_link,7.03709330404e-05,-0.00225428746113,0.639761048988,0.768570565032,0.0,0.0,0.0,0.0,0.0,0.0,0.0,0.0,0.0,-0.000208707198501,-0.00101591286984,-4.92579095214e-05,0.0,0.0,0.0,0.0,0.0,0.0,0.0,0.0,0.0,0.0035701826875,0.0017704366875,9.80887079205,0.0,0.0,0.0,0.0,0.0,0.0,0.0,0.0,0.0
1716886175197472261,88406,1716886175195527141,imu_link,0.0171115507477,-0.00165811506938,0.649033787632,0.760565308174,0.0,0.0,0.0,0.0,0.0,0.0,0.0,0.0,0.0,0.00617664398346,-0.00314436324442,0.148942267264,0.0,0.0,0.0,0.0,0.0,0.0,0.0,0.0,0.0,0.059600456125,0.0044559835625,9.81442499127,0.0,0.0,0.0,0.0,0.0,0.0,0.0,0.0,0.0
1716886175361111941,88407,1716886175360531035,imu_link,0.000458139598377,-0.000838224816764,0.668634084582,0.74359098194,0.0,0.0,0.0,0.0,0.0,0.0,0.0,0.0,0.0,-0.00552983304765,-0.00314436324442,0.314429288471,0.0,0.0,0.0,0.0,0.0,0.0,0.0,0.0,0.0,0.00216637409375,0.0066532491875,9.81253290143,0.0,0.0,0.0,0.0,0.0,0.0,0.0,0.0,0.0
1716886175526159073,88408,1716886175525536473,imu_link,-0.00132987129382,0.01542199535,0.684510509445,0.728838635064,0.0,0.0,0.0,0.0,0.0,0.0,0.0,0.0,0.0,-0.000740819864907,-0.00154802541983,0.262814348305,0.0,0.0,0.0,0.0,0.0,0.0,0.0,0.0,0.0,0.0047908858125,0.00531047575,9.81064081159,0.0,0.0,0.0,0.0,0.0,0.0,0.0,0.0,0.0
1716886175692234914,88409,1716886175690531539,imu_link,0.00079397655953,-0.000866555043828,0.701892731388,0.712281694492,0.0,0.0,0.0,0.0,0.0,0.0,0.0,0.0,0.0,0.00298396833427,-0.00101591286984,0.291016315783,0.0,0.0,0.0,0.0,0.0,0.0,0.0,0.0,0.0,0.003448112375,-0.00036579378125,9.81009149518,0.0,0.0,0.0,0.0,0.0,0.0,0.0,0.0,0.0
1716886175857062276,88410,1716886175855503200,imu_link,-0.00148101515257,0.0153650867743,0.717867183204,0.69600892809,0.0,0.0,0.0,0.0,0.0,0.0,0.0,0.0,0.0,-0.00180504496489,4.83123465589e-05,0.276649301613,0.0,0.0,0.0,0.0,0.0,0.0,0.0,0.0,0.0,0.00790367878125,0.0105594991875,9.81112909284,0.0,0.0,0.0,0.0,0.0,0.0,0.0,0.0,0.0
1716886176021241146,88411,1716886176020586672,imu_link,0.00051641375098,-0.00110706734015,0.7345600432,0.678542593101,0.0,0.0,0.0,0.0,0.0,0.0,0.0,0.0,0.0,-0.0028692702977,0.00111253744654,0.292612677181,0.0,0.0,0.0,0.0,0.0,0.0,0.0,0.0,0.0,0.00338707721875,0.0037235616875,9.81003046002,0.0,0.0,0.0,0.0,0.0,0.0,0.0,0.0,0.0
1716886176187497883,88412,1716886176186538794,imu_link,0.00214483158864,0.0153641134894,0.750192602434,0.661037368813,0.0,0.0,0.0,0.0,0.0,0.0,0.0,0.0,0.0,0.000323405351489,-0.00101591286984,0.283034627999,0.0,0.0,0.0,0.0,0.0,0.0,0.0,0.0,0.0,0.0066219405,0.0112919210625,9.81241083112,0.0,0.0,0.0,0.0,0.0,0.0,0.0,0.0,0.0
1716886176352122011,88413,1716886176351541837,imu_link,0.00019628081281,-0.00124174252499,0.765153016322,0.643847249868,0.0,0.0,0.0,0.0,0.0,0.0,0.0,0.0,0.0,-0.00393349539768,0.00111253744654,0.276117181147,0.0,0.0,0.0,0.0,0.0,0.0,0.0,0.0,0.0,0.001006706125,0.00726360075,9.8127160069,0.0,0.0,0.0,0.0,0.0,0.0,0.0,0.0,0.0
1716886176518272105,88414,1716886176516538054,imu_link,0.00369860158038,0.0137886174346,0.779972472574,0.625650970112,0.0,0.0,0.0,0.0,0.0,0.0,0.0,0.0,0.0,-0.0124472966632,-0.00420858840261,0.284630989397,0.0,0.0,0.0,0.0,0.0,0.0,0.0,0.0,0.0,0.0089412764375,0.00335735075,9.81222772565,0.0,0.0,0.0,0.0,0.0,0.0,0.0,0.0,0.0
1716886176682196255,88415,1716886176681536787,imu_link,-0.00150512159333,-0.00358096559599,0.793120194187,0.609052763615,0.0,0.0,0.0,0.0,0.0,0.0,0.0,0.0,0.0,-0.0230895495256,0.00430521297931,0.25642902192,0.0,0.0,0.0,0.0,0.0,0.0,0.0,0.0,0.0,0.00436363971875,0.001160085125,9.81015253034,0.0,0.0,0.0,0.0,0.0,0.0,0.0,0.0,0.0
1716886176847205729,88416,1716886176846560193,imu_link,0.00540241293159,0.011816800676,0.807296403939,0.590003129943,0.0,0.0,0.0,0.0,0.0,0.0,0.0,0.0,0.0,0.00564453143347,-0.00367647585262,0.28782365259,0.0,0.0,0.0,0.0,0.0,0.0,0.0,0.0,0.0,0.00057946003125,-0.00073200471875,9.8117394444,0.0,0.0,0.0,0.0,0.0,0.0,0.0,0.0,0.0
1716886177012331712,88417,1716886177011523318,imu_link,-0.000571287536026,-0.00352054524116,0.821264593189,0.570536368136,0.0,0.0,0.0,0.0,0.0,0.0,0.0,0.0,0.0,0.00138763056789,-0.00314436324442,0.290484225119,0.0,0.0,0.0,0.0,0.0,0.0,0.0,0.0,0.0,0.005401237375,0.00097697965625,9.81161737409,0.0,0.0,0.0,0.0,0.0,0.0,0.0,0.0,0.0
1716886177177144076,88418,1716886177176524300,imu_link,0.0037400570081,0.0126232445565,0.834676119764,0.550583727299,0.0,0.0,0.0,0.0,0.0,0.0,0.0,0.0,0.0,0.00191974317608,0.00217676277935,0.291548436249,0.0,0.0,0.0,0.0,0.0,0.0,0.0,0.0,0.0,0.00826988971875,4.1715625e-07,9.81106805768,0.0,0.0,0.0,0.0,0.0,0.0,0.0,0.0,0.0
1716886177342151693,88419,1716886177341594999,imu_link,-0.000419356729527,-0.0035460816055,0.847733722132,0.53041001669,0.0,0.0,0.0,0.0,0.0,0.0,0.0,0.0,0.0,-0.00340138284769,0.00324098787933,0.291016315783,0.0,0.0,0.0,0.0,0.0,0.0,0.0,0.0,0.0,0.00753746784375,0.0081180929375,9.81192254987,0.0,0.0,0.0,0.0,0.0,0.0,0.0,0.0,0.0
1716886177508444113,88420,1716886177506562954,imu_link,0.00265455731561,0.0122145051214,0.859549696457,0.510899284117,0.0,0.0,0.0,0.0,0.0,0.0,0.0,0.0,0.0,-0.00552983304765,-0.00101591286984,0.276649301613,0.0,0.0,0.0,0.0,0.0,0.0,0.0,0.0,0.0,0.00546227253125,0.00231975309375,9.81247186627,0.0,0.0,0.0,0.0,0.0,0.0,0.0,0.0,0.0
1716886177673215299,88421,1716886177671532120,imu_link,-0.000417201763429,-0.00443919498781,0.871213539837,0.49088398578,0.0,0.0,0.0,0.0,0.0,0.0,0.0,0.0,0.0,-0.00393349539768,-0.00474070106902,0.280906175936,0.0,0.0,0.0,0.0,0.0,0.0,0.0,0.0,0.0,0.0003963545625,-0.002257883625,9.8113121983,0.0,0.0,0.0,0.0,0.0,0.0,0.0,0.0,0.0
1716886177837491484,88422,1716886177836523012,imu_link,0.00349969151866,0.0115935456183,0.882170713638,0.470774015701,0.0,0.0,0.0,0.0,0.0,0.0,0.0,0.0,0.0,0.00245185578428,-0.00793337660179,0.277713512743,0.0,0.0,0.0,0.0,0.0,0.0,0.0,0.0,0.0,0.0082088545625,0.0059208273125,9.80990838971,0.0,0.0,0.0,0.0,0.0,0.0,0.0,0.0,0.0
1716886178003274122,88423,1716886178001558064,imu_link,-0.00101096525108,-0.0045977615828,0.892880821687,0.450268449706,0.0,0.0,0.0,0.0,0.0,0.0,0.0,0.0,0.0,-0.00340138284769,-0.00154802541983,0.280374085272,0.0,0.0,0.0,0.0,0.0,0.0,0.0,0.0,0.0,0.00057946003125,-0.0021358133125,9.80948114362,0.0,0.0,0.0,0.0,0.0,0.0,0.0,0.0,0.0
1716886178167083745,88424,1716886178166519607,imu_link,0.00419843937324,0.0106757539146,0.902621643165,0.430281966477,0.0,0.0,0.0,0.0,0.0,0.0,0.0,0.0,0.0,-0.00446560794767,0.00111253744654,0.269731824959,0.0,0.0,0.0,0.0,0.0,0.0,0.0,0.0,0.0,0.011504753,0.00207561246875,9.80887079205,0.0,0.0,0.0,0.0,0.0,0.0,0.0,0.0,0.0
1716886178332177587,88425,1716886178331532345,imu_link,-0.00165729844763,-0.00517087387992,0.912396465337,0.409271554674,0.0,0.0,0.0,0.0,0.0,0.0,0.0,0.0,0.0,-0.00446560794767,-0.00208013802803,0.280906175936,0.0,0.0,0.0,0.0,0.0,0.0,0.0,0.0,0.0,-0.00051917278125,-0.004699289875,9.80929803815,0.0,0.0,0.0,0.0,0.0,0.0,0.0,0.0,0.0
1716886178498587080,88426,1716886178496525918,imu_link,0.00445451054765,0.0109021797807,0.921683358773,0.387764214405,0.0,0.0,0.0,0.0,0.0,0.0,0.0,0.0,0.0,0.00830509418342,0.00217676277935,0.284098868931,0.0,0.0,0.0,0.0,0.0,0.0,0.0,0.0,0.0,0.00704918659375,0.007507741375,9.81289911237,0.0,0.0,0.0,0.0,0.0,0.0,0.0,0.0,0.0
1716886178663322126,88427,1716886178661536829,imu_link,-0.00140928231973,-0.00378383654053,0.930306449803,0.366760965697,0.0,0.0,0.0,0.0,0.0,0.0,0.0,0.0,0.0,0.00830509418342,0.00696577619493,0.275052940214,0.0,0.0,0.0,0.0,0.0,0.0,0.0,0.0,0.0,0.00595055378125,0.00024455778125,9.80960321393,0.0,0.0,0.0,0.0,0.0,0.0,0.0,0.0,0.0
1716886178828231782,88428,1716886178826532196,imu_link,0.00533263097051,0.0107951510963,0.938206049462,0.34586765751,0.0,0.0,0.0,0.0,0.0,0.0,0.0,0.0,0.0,-0.00552983304765,-0.00846548915178,0.270796065892,0.0,0.0,0.0,0.0,0.0,0.0,0.0,0.0,0.0,0.002959831125,-0.0029903055,9.81021356549,0.0,0.0,0.0,0.0,0.0,0.0,0.0,0.0,0.0
1716886178993242897,88429,1716886178991522125,imu_link,-0.00138553585614,-0.00457802407624,0.946182585572,0.32359795541,0.0,0.0,0.0,0.0,0.0,0.0,0.0,0.0,0.0,-0.00340138284769,-0.00261225063622,0.28675944146,0.0,0.0,0.0,0.0,0.0,0.0,0.0,0.0,0.0,0.00387535846875,0.00219768278125,9.80960321393,0.0,0.0,0.0,0.0,0.0,0.0,0.0,0.0,0.0
1716886179158196199,88430,1716886179156535396,imu_link,0.00363637729454,0.0111731648131,0.953530876055,0.301066114928,0.0,0.0,0.0,0.0,0.0,0.0,0.0,0.0,0.0,0.000323405351489,-0.00261225063622,0.287291532124,0.0,0.0,0.0,0.0,0.0,0.0,0.0,0.0,0.0,0.0008846358125,-0.00317341096875,9.80710077252,0.0,0.0,0.0,0.0,0.0,0.0,0.0,0.0,0.0
1716886179322182812,88431,1716886179321533861,imu_link,-0.000722515267366,-0.00491663413647,0.960321051225,0.278852619235,0.0,0.0,0.0,0.0,0.0,0.0,0.0,0.0,0.0,-0.00180504496489,0.00217676277935,0.281438296402,0.0,0.0,0.0,0.0,0.0,0.0,0.0,0.0,0.0,0.0101009444062,0.00561565153125,9.80966424909,0.0,0.0,0.0,0.0,0.0,0.0,0.0,0.0,0.0
1716886179487150120,88432,1716886179486529612,imu_link,0.00163363575184,0.0117785817845,0.966536408368,0.256253717134,0.0,0.0,0.0,0.0,0.0,0.0,0.0,0.0,0.0,0.00511241865065,-0.00474070106902,0.284098868931,0.0,0.0,0.0,0.0,0.0,0.0,0.0,0.0,0.0,-0.00198401653125,-0.0033565164375,9.81051874127,0.0,0.0,0.0,0.0,0.0,0.0,0.0,0.0,0.0
1716886179652251016,88433,1716886179651524554,imu_link,8.64584774376e-05,-0.00515194624945,0.972661410859,0.232170691088,0.0,0.0,0.0,0.0,0.0,0.0,0.0,0.0,0.0,-0.00606194559764,0.00111253744654,0.30112645563,0.0,0.0,0.0,0.0,0.0,0.0,0.0,0.0,0.0,0.008330924875,0.005798757,9.8097863194,0.0,0.0,0.0,0.0,0.0,0.0,0.0,0.0,0.0
1716886179818264603,88434,1716886179816518228,imu_link,0.000396664817708,0.0106983751114,0.977735743468,0.209566703872,0.0,0.0,0.0,0.0,0.0,0.0,0.0,0.0,0.0,-0.00765828324761,-0.00154802541983,0.280906175936,0.0,0.0,0.0,0.0,0.0,0.0,0.0,0.0,0.0,0.0040584639375,0.00231975309375,9.80691766705,0.0,0.0,0.0,0.0,0.0,0.0,0.0,0.0,0.0
1716886179982133026,88435,1716886179981515745,imu_link,0.000381630505486,-0.0065121462042,0.982208407487,0.187680821,0.0,0.0,0.0,0.0,0.0,0.0,0.0,0.0,0.0,-0.00765828324761,-0.00420858840261,0.270796065892,0.0,0.0,0.0,0.0,0.0,0.0,0.0,0.0,0.0,0.0027156905,-0.00414997346875,9.81039667096,0.0,0.0,0.0,0.0,0.0,0.0,0.0,0.0,0.0
1716886180147271775,88436,1716886180146545779,imu_link,0.00099567170318,0.00979446200871,0.98628804711,0.164739082432,0.0,0.0,0.0,0.0,0.0,0.0,0.0,0.0,0.0,-0.0012729324149,-0.00527281361901,0.282502537335,0.0,0.0,0.0,0.0,0.0,0.0,0.0,0.0,0.0,0.00985680378125,0.00305217496875,9.81100702252,0.0,0.0,0.0,0.0,0.0,0.0,0.0,0.0,0.0
1716886180312131565,88437,1716886180311520200,imu_link,3.5940367493e-06,-0.00666584595514,0.989897429181,0.141628550039,0.0,0.0,0.0,0.0,0.0,0.0,0.0,0.0,0.0,0.000323405351489,-0.00154802541983,0.283566748465,0.0,0.0,0.0,0.0,0.0,0.0,0.0,0.0,0.0,0.0038143233125,-0.0010371805,9.8078331944,0.0,0.0,0.0,0.0,0.0,0.0,0.0,0.0,0.0
1716886180477338713,88438,1716886180476518041,imu_link,-0.000264816686354,0.0101009126068,0.99281668751,0.119217978668,0.0,0.0,0.0,0.0,0.0,0.0,0.0,0.0,0.0,0.00298396833427,0.00217676277935,0.273988729084,0.0,0.0,0.0,0.0,0.0,0.0,0.0,0.0,0.0,0.0008846358125,-0.0043330789375,9.81088495221,0.0,0.0,0.0,0.0,0.0,0.0,0.0,0.0,0.0
1716886180643664459,88439,1716886180641543013,imu_link,0.000818931548119,-0.00661062905711,0.995397341121,0.0956021036632,0.0,0.0,0.0,0.0,0.0,0.0,0.0,0.0,0.0,-0.00340138284769,0.00270887532934,0.28782365259,0.0,0.0,0.0,0.0,0.0,0.0,0.0,0.0,0.0,0.0074764326875,0.0034794210625,9.81015253034,0.0,0.0,0.0,0.0,0.0,0.0,0.0,0.0,0.0
1716886180809238387,88440,1716886180807546607,imu_link,-0.00114956516293,0.00960848771983,0.997291995586,0.072904259164,0.0,0.0,0.0,0.0,0.0,0.0,0.0,0.0,0.0,-0.00393349539768,0.00377310042932,0.274520849551,0.0,0.0,0.0,0.0,0.0,0.0,0.0,0.0,0.0,0.00515709675,-0.00329548128125,9.81094598737,0.0,0.0,0.0,0.0,0.0,0.0,0.0,0.0,0.0
1716886180974186177,88441,1716886180972562837,imu_link,0.00107637093829,-0.00715825985713,0.998749977858,0.0494578858201,0.0,0.0,0.0,0.0,0.0,0.0,0.0,0.0,0.0,-0.00606194559764,0.0048373255293,0.284630989397,0.0,0.0,0.0,0.0,0.0,0.0,0.0,0.0,0.0,0.0052791670625,0.0015262960625,9.81051874127,0.0,0.0,0.0,0.0,0.0,0.0,0.0,0.0,0.0
1716886181139162353,88442,1716886181137506577,imu_link,-0.000165673919693,0.00929756226004,0.999598903205,0.02674996449,0.0,0.0,0.0,0.0,0.0,0.0,0.0,0.0,0.0,0.000855517959688,-0.00686915150181,0.275585060681,0.0,0.0,0.0,0.0,0.0,0.0,0.0,0.0,0.0,0.0069881514375,0.00042766325,9.80826044049,0.0,0.0,0.0,0.0,0.0,0.0,0.0,0.0,0.0
1716886181304642973,88443,1716886181302590286,imu_link,0.000917774329877,-0.00775299883238,0.999958236593,0.00475118609333,0.0,0.0,0.0,0.0,0.0,0.0,0.0,0.0,0.0,-0.00659405814763,-0.00208013802803,0.266539161766,0.0,0.0,0.0,0.0,0.0,0.0,0.0,0.0,0.0,0.00460778034375,0.00158733121875,9.81082391705,0.0,0.0,0.0,0.0,0.0,0.0,0.0,0.0,0.0
1716886181469207225,88444,1716886181467548258,imu_link,-0.0010181804566,0.00790304663146,0.999812124833,-0.0176697537926,0.0,0.0,0.0,0.0,0.0,0.0,0.0,0.0,0.0,-0.00872250834759,-0.00208013802803,0.271860277022,0.0,0.0,0.0,0.0,0.0,0.0,0.0,0.0,0.0,0.0008846358125,-0.00640827425,9.80990838971,0.0,0.0,0.0,0.0,0.0,0.0,0.0,0.0,0.0
1716886181633648469,88445,1716886181632544503,imu_link,0.0018102154977,-0.00870275427383,0.999086439873,-0.041800369018,0.0,0.0,0.0,0.0,0.0,0.0,0.0,0.0,0.0,-0.00393349539768,4.83123465589e-05,0.292612677181,0.0,0.0,0.0,0.0,0.0,0.0,0.0,0.0,0.0,0.00546227253125,-0.00280720003125,9.81064081159,0.0,0.0,0.0,0.0,0.0,0.0,0.0,0.0,0.0
1716886181798243021,88446,1716886181797539453,imu_link,-0.00166215705487,0.00760014961498,0.997835948355,-0.0652908502837,0.0,0.0,0.0,0.0,0.0,0.0,0.0,0.0,0.0,0.00191974317608,-0.00101591286984,0.285163080061,0.0,0.0,0.0,0.0,0.0,0.0,0.0,0.0,0.0,0.00131188190625,-0.006652414875,9.80923700299,0.0,0.0,0.0,0.0,0.0,0.0,0.0,0.0,0.0
1716886181963164782,88447,1716886181962539593,imu_link,0.00210479710481,-0.00854505284304,0.996038287659,-0.0884888773662,0.0,0.0,0.0,0.0,0.0,0.0,0.0,0.0,0.0,-0.00180504496489,0.00536943807929,0.281970416868,0.0,0.0,0.0,0.0,0.0,0.0,0.0,0.0,0.0,0.00515709675,-0.00207477815625,9.81070184674,0.0,0.0,0.0,0.0,0.0,0.0,0.0,0.0,0.0
1716886182128030994,88448,1716886182127507901,imu_link,-0.00158996152228,0.00702522626949,0.993758950372,-0.111316067008,0.0,0.0,0.0,0.0,0.0,0.0,0.0,0.0,0.0,-0.00659405814763,0.00270887532934,0.278245633209,0.0,0.0,0.0,0.0,0.0,0.0,0.0,0.0,0.0,0.006377799875,0.003113210125,9.81198358502,0.0,0.0,0.0,0.0,0.0,0.0,0.0,0.0,0.0
1716886182293454059,88449,1716886182292523191,imu_link,0.0023398380064,-0.0100586735727,0.991060303984,-0.133014368065,0.0,0.0,0.0,0.0,0.0,0.0,0.0,0.0,0.0,-0.0129794096788,0.00590155109495,0.264942800368,0.0,0.0,0.0,0.0,0.0,0.0,0.0,0.0,0.0,0.00436363971875,4.1715625e-07,9.81088495221,0.0,0.0,0.0,0.0,0.0,0.0,0.0,0.0,0.0
1716886182459247979,88450,1716886182457534675,imu_link,-0.00130358057312,0.00571530094276,0.987842375376,-0.155348245642,0.0,0.0,0.0,0.0,0.0,0.0,0.0,0.0,0.0,-0.00340138284769,-0.00420858840261,0.273456608618,0.0,0.0,0.0,0.0,0.0,0.0,0.0,0.0,0.0,-0.0003360673125,-0.00414997346875,9.81393671002,0.0,0.0,0.0,0.0,0.0,0.0,0.0,0.0,0.0
1716886182623236878,88451,1716886182622625925,imu_link,0.00277386151636,-0.0102859742326,0.983975839475,-0.177983290665,0.0,0.0,0.0,0.0,0.0,0.0,0.0,0.0,0.0,0.000323405351489,-0.00367647585262,0.278245633209,0.0,0.0,0.0,0.0,0.0,0.0,0.0,0.0,0.0,-3.089153125e-05,-0.00183063753125,9.81137323346,0.0,0.0,0.0,0.0,0.0,0.0,0.0,0.0,0.0
1716886182789290125,88452,1716886182787514272,imu_link,-0.00178709687971,0.00605491259501,0.97986204564,-0.199575839803,0.0,0.0,0.0,0.0,0.0,0.0,0.0,0.0,0.0,0.00617664398346,-0.00420858840261,0.266539161766,0.0,0.0,0.0,0.0,0.0,0.0,0.0,0.0,0.0,-0.0027774735625,-0.0104365945625,9.8093590733,0.0,0.0,0.0,0.0,0.0,0.0,0.0,0.0,0.0
1716886182954828788,88453,1716886182952674033,imu_link,0.00258412911968,-0.00979223692421,0.97513451745,-0.221382264985,0.0,0.0,0.0,0.0,0.0,0.0,0.0,0.0,0.0,0.000855517959688,4.83123465589e-05,0.270263945425,0.0,0.0,0.0,0.0,0.0,0.0,0.0,0.0,0.0,-0.0032657548125,-6.0618e-05,9.81027460065,0.0,0.0,0.0,0.0,0.0,0.0,0.0,0.0,0.0
1716886183118209735,88454,1716886183117550800,imu_link,-0.00134112979121,0.00570424312597,0.969621317044,-0.24454072159,0.0,0.0,0.0,0.0,0.0,0.0,0.0,0.0,0.0,-0.00606194559764,0.00217676277935,0.288887893523,0.0,0.0,0.0,0.0,0.0,0.0,0.0,0.0,0.0,0.00717125690625,0.0022587179375,9.81180047955,0.0,0.0,0.0,0.0,0.0,0.0,0.0,0.0,0.0
1716886183284262948,88455,1716886183282536735,imu_link,0.0031739276193,-0.0105726647782,0.963465126199,-0.267606232253,0.0,0.0,0.0,0.0,0.0,0.0,0.0,0.0,0.0,-0.00446560794767,-0.00154802541983,0.289419984186,0.0,0.0,0.0,0.0,0.0,0.0,0.0,0.0,0.0,0.0027156905,0.0044559835625,9.81027460065,0.0,0.0,0.0,0.0,0.0,0.0,0.0,0.0,0.0
1716886183449143693,88456,1716886183447532910,imu_link,-0.00180046254671,0.00507009507555,0.957063127765,-0.289829642969,0.0,0.0,0.0,0.0,0.0,0.0,0.0,0.0,0.0,-0.0012729324149,0.00111253744654,0.280374085272,0.0,0.0,0.0,0.0,0.0,0.0,0.0,0.0,0.0,0.0011287764375,-0.0031123758125,9.81057977643,0.0,0.0,0.0,0.0,0.0,0.0,0.0,0.0,0.0
1716886183613162751,88457,1716886183612546349,imu_link,0.00368511546307,-0.0109554732811,0.949960135362,-0.312157234022,0.0,0.0,0.0,0.0,0.0,0.0,0.0,0.0,0.0,-0.00499772049766,-0.00527281361901,0.284098868931,0.0,0.0,0.0,0.0,0.0,0.0,0.0,0.0,0.0,-0.00466956340625,-0.00329548128125,9.8103356358,0.0,0.0,0.0,0.0,0.0,0.0,0.0,0.0,0.0
1716886183778496744,88458,1716886183777601861,imu_link,-0.00177599896109,0.004848800262,0.942047871426,-0.335438731971,0.0,0.0,0.0,0.0,0.0,0.0,0.0,0.0,0.0,0.00245185578428,-0.00261225063622,0.297933792437,0.0,0.0,0.0,0.0,0.0,0.0,0.0,0.0,0.0,-0.000946418875,-0.001281321125,9.80929803815,0.0,0.0,0.0,0.0,0.0,0.0,0.0,0.0,0.0
1716886183943512889,88459,1716886183942601479,imu_link,0.00456317009565,-0.0101596277298,0.933771265802,-0.357697054232,0.0,0.0,0.0,0.0,0.0,0.0,0.0,0.0,0.0,0.00245185578428,0.00270887532934,0.28782365259,0.0,0.0,0.0,0.0,0.0,0.0,0.0,0.0,0.0,0.0050350264375,0.0066532491875,9.80942010846,0.0,0.0,0.0,0.0,0.0,0.0,0.0,0.0,0.0
1716886184109146045,88460,1716886184107536521,imu_link,-0.0030242379301,0.00457434795436,0.925311109007,-0.379169198215,0.0,0.0,0.0,0.0,0.0,0.0,0.0,0.0,0.0,0.000323405351489,0.00270887532934,0.279841964806,0.0,0.0,0.0,0.0,0.0,0.0,0.0,0.0,0.0,-0.00540198528125,0.00036662809375,9.80911493268,0.0,0.0,0.0,0.0,0.0,0.0,0.0,0.0,0.0
1716886184273427445,88461,1716886184272570121,imu_link,0.00621103732333,-0.0090895184176,0.915881680153,-0.401297335689,0.0,0.0,0.0,0.0,0.0,0.0,0.0,0.0,0.0,0.000323405351489,-0.000483800203432,0.291548436249,0.0,0.0,0.0,0.0,0.0,0.0,0.0,0.0,0.0,-0.00076331340625,0.003601491375,9.80996942487,0.0,0.0,0.0,0.0,0.0,0.0,0.0,0.0,0.0
1716886184438492359,88462,1716886184437543680,imu_link,-0.00281856822177,0.00448187442864,0.906564797207,-0.422033454763,0.0,0.0,0.0,0.0,0.0,0.0,0.0,0.0,0.0,-0.00180504496489,-0.00420858840261,0.275585060681,0.0,0.0,0.0,0.0,0.0,0.0,0.0,0.0,0.0,-9.19266875e-05,0.0106815695,9.80966424909,0.0,0.0,0.0,0.0,0.0,0.0,0.0,0.0,0.0
1716886184603076674,88463,1716886184602530818,imu_link,0.00644408691049,-0.00911000282202,0.896868407432,-0.442156693202,0.0,0.0,0.0,0.0,0.0,0.0,0.0,0.0,0.0,0.000855517959688,-0.00101591286984,0.270796065892,0.0,0.0,0.0,0.0,0.0,0.0,0.0,0.0,0.0,0.00216637409375,0.0022587179375,9.81112909284,0.0,0.0,0.0,0.0,0.0,0.0,0.0,0.0,0.0
1716886184768093554,88464,1716886184767502373,imu_link,-0.00272291180222,0.00333192875294,0.886651890733,-0.462417461458,0.0,0.0,0.0,0.0,0.0,0.0,0.0,0.0,0.0,-0.0124472966632,-0.00367647585262,0.275052940214,0.0,0.0,0.0,0.0,0.0,0.0,0.0,0.0,0.0,-0.00320471965625,0.00433391325,9.80954217877,0.0,0.0,0.0,0.0,0.0,0.0,0.0,0.0,0.0
1716886184934655030,88465,1716886184932547966,imu_link,0.00880898831889,-0.00927068311245,0.875738528319,-0.482616292905,0.0,0.0,0.0,0.0,0.0,0.0,0.0,0.0,0.0,-0.00552983304765,-0.00527281361901,0.278245633209,0.0,0.0,0.0,0.0,0.0,0.0,0.0,0.0,0.0,0.002471549875,0.00109904996875,9.81027460065,0.0,0.0,0.0,0.0,0.0,0.0,0.0,0.0,0.0
1716886185099554860,88466,1716886185097549585,imu_link,-0.00284540371919,0.00263936984978,0.864227172257,-0.503086803779,0.0,0.0,0.0,0.0,0.0,0.0,0.0,0.0,0.0,0.00245185578428,-0.00154802541983,0.284630989397,0.0,0.0,0.0,0.0,0.0,0.0,0.0,0.0,0.0,-0.002167122,0.00109904996875,9.81100702252,0.0,0.0,0.0,0.0,0.0,0.0,0.0,0.0,0.0
1716886185263235811,88467,1716886185262597759,imu_link,0.0093363732314,-0.0081206633515,0.851334293547,-0.524477652139,0.0,0.0,0.0,0.0,0.0,0.0,0.0,0.0,0.0,0.00404819355067,-0.00208013802803,0.302722817028,0.0,0.0,0.0,0.0,0.0,0.0,0.0,0.0,0.0,-0.00070227825,0.0028690695,9.81338739362,0.0,0.0,0.0,0.0,0.0,0.0,0.0,0.0,0.0
1716886185428159682,88468,1716886185427521478,imu_link,-0.00323494269634,0.00295264694722,0.838441681643,-0.544973727353,0.0,0.0,0.0,0.0,0.0,0.0,0.0,0.0,0.0,0.00351608100068,-0.000483800203432,0.293676888312,0.0,0.0,0.0,0.0,0.0,0.0,0.0,0.0,0.0,0.00277672565625,0.00512737028125,9.81186151471,0.0,0.0,0.0,0.0,0.0,0.0,0.0,0.0,0.0
1716886185595255914,88469,1716886185594537371,imu_link,0.00936546472294,-0.00766265421236,0.824798387896,-0.56529743598,0.0,0.0,0.0,0.0,0.0,0.0,0.0,0.0,0.0,0.00245185578428,0.00164465022936,0.293144767845,0.0,0.0,0.0,0.0,0.0,0.0,0.0,0.0,0.0,0.0008846358125,0.00824016325,9.81198358502,0.0,0.0,0.0,0.0,0.0,0.0,0.0,0.0,0.0
1716886185760485683,88470,1716886185759559879,imu_link,-0.00444763459301,0.00107415637281,0.812796565247,-0.582529662986,0.0,0.0,0.0,0.0,0.0,0.0,0.0,0.0,0.0,-0.0028692702977,0.00111253744654,0.254300569857,0.0,0.0,0.0,0.0,0.0,0.0,0.0,0.0,0.0,-0.0252994462188,0.00238078825,9.80960321393,0.0,0.0,0.0,0.0,0.0,0.0,0.0,0.0,0.0
1716886185925472236,88471,1716886185924541332,imu_link,0.00964414131733,-0.00736973931531,0.811251298827,-0.584571644567,0.0,0.0,0.0,0.0,0.0,0.0,0.0,0.0,0.0,0.00245185578428,-0.00367647585262,0.0313453839369,0.0,0.0,0.0,0.0,0.0,0.0,0.0,0.0,0.0,-0.0343326493438,0.008484303875,9.81161737409,0.0,0.0,0.0,0.0,0.0,0.0,0.0,0.0,0.0
1716886186091212285,88472,1716886186089560730,imu_link,-0.00312256212892,0.00299026116343,0.811255662522,-0.584675600629,0.0,0.0,0.0,0.0,0.0,0.0,0.0,0.0,0.0,-0.000208707198501,-0.00208013802803,0.00101496730687,0.0,0.0,0.0,0.0,0.0,0.0,0.0,0.0,0.0,0.00411949909375,0.00244182340625,9.8113121983,0.0,0.0,0.0,0.0,0.0,0.0,0.0,0.0,0.0
1716886186256284559,88473,1716886186254548291,imu_link,0.00916648433079,-0.00810674656939,0.81117838722,-0.584670745234,0.0,0.0,0.0,0.0,0.0,0.0,0.0,0.0,0.0,-0.000208707198501,-0.00101591286984,0.000482854698677,0.0,0.0,0.0,0.0,0.0,0.0,0.0,0.0,0.0,0.00131188190625,0.003845632,9.81119012799,0.0,0.0,0.0,0.0,0.0,0.0,0.0,0.0,0.0
1716886186421715836,88474,1716886186419520567,imu_link,-0.0030002926396,0.0029190148612,0.811234843171,-0.584705487251,0.0,0.0,0.0,0.0,0.0,0.0,0.0,0.0,0.0,-0.000740819864907,-0.00101591286984,-4.92579095214e-05,0.0,0.0,0.0,0.0,0.0,0.0,0.0,0.0,0.0,0.0011287764375,0.0037235616875,9.81064081159,0.0,0.0,0.0,0.0,0.0,0.0,0.0,0.0,0.0
1716886186585336441,88475,1716886186584538737,imu_link,0.00917412226694,-0.00829078698783,0.811181580276,-0.584663614528,0.0,0.0,0.0,0.0,0.0,0.0,0.0,0.0,0.0,-0.000208707198501,-0.00101591286984,-4.92579095214e-05,0.0,0.0,0.0,0.0,0.0,0.0,0.0,0.0,0.0,0.00118981159375,0.00354045621875,9.81021356549,0.0,0.0,0.0,0.0,0.0,0.0,0.0,0.0,0.0
1716886186751509632,88476,1716886186749536981,imu_link,-0.00285461475315,0.00293999384159,0.811265014578,-0.584664248721,0.0,0.0,0.0,0.0,0.0,0.0,0.0,0.0,0.0,-0.000208707198501,-0.00154802541983,-0.00058137051772,0.0,0.0,0.0,0.0,0.0,0.0,0.0,0.0,0.0,0.0013729170625,0.00390666715625,9.81039667096,0.0,0.0,0.0,0.0,0.0,0.0,0.0,0.0,0.0
1716886186915210235,88477,1716886186914505038,imu_link,0.00899377623079,-0.00864753207072,0.811236042477,-0.584585678549,0.0,0.0,0.0,0.0,0.0,0.0,0.0,0.0,0.0,-0.000740819864907,-0.00101591286984,-0.00058137051772,0.0,0.0,0.0,0.0,0.0,0.0,0.0,0.0,0.0,0.00118981159375,0.00329631559375,9.81106805768,0.0,0.0,0.0,0.0,0.0,0.0,0.0,0.0,0.0
1716886187081531742,88478,1716886187079574179,imu_link,-0.00270758416199,0.0028878412695,0.811295664218,-0.584622677102,0.0,0.0,0.0,0.0,0.0,0.0,0.0,0.0,0.0,-0.000740819864907,-0.00101591286984,-4.92579095214e-05,0.0,0.0,0.0,0.0,0.0,0.0,0.0,0.0,0.0,0.00131188190625,0.0039677023125,9.81039667096,0.0,0.0,0.0,0.0,0.0,0.0,0.0,0.0,0.0
1716886187245506938,88479,1716886187244549306,imu_link,0.00892480006092,-0.00892849513199,0.811239158864,-0.58457818728,0.0,0.0,0.0,0.0,0.0,0.0,0.0,0.0,0.0,-0.000740819864907,-0.00101591286984,-4.92579095214e-05,0.0,0.0,0.0,0.0,0.0,0.0,0.0,0.0,0.0,0.00094567096875,0.004089772625,9.81088495221,0.0,0.0,0.0,0.0,0.0,0.0,0.0,0.0,0.0
1716886187410146762,88480,1716886187409522285,imu_link,-0.00251549997381,0.00284603289072,0.811325996348,-0.584581645288,0.0,0.0,0.0,0.0,0.0,0.0,0.0,0.0,0.0,-0.000740819864907,-0.00154802541983,-0.00058137051772,0.0,0.0,0.0,0.0,0.0,0.0,0.0,0.0,0.0,0.00118981159375,0.00366252653125,9.8107628819,0.0,0.0,0.0,0.0,0.0,0.0,0.0,0.0,0.0
1716886187575329396,88481,1716886187574514775,imu_link,0.00872456951875,-0.00936580432935,0.811293019547,-0.584499615082,0.0,0.0,0.0,0.0,0.0,0.0,0.0,0.0,0.0,-0.000740819864907,-0.00101591286984,-0.00058137051772,0.0,0.0,0.0,0.0,0.0,0.0,0.0,0.0,0.0,0.0007625655,0.0034794210625,9.81057977643,0.0,0.0,0.0,0.0,0.0,0.0,0.0,0.0,0.0
1716886187741209599,88482,1716886187739530234,imu_link,-0.00235392185955,0.00282203134718,0.811356025178,-0.584540756148,0.0,0.0,0.0,0.0,0.0,0.0,0.0,0.0,0.0,-0.000208707198501,-0.00154802541983,-4.92579095214e-05,0.0,0.0,0.0,0.0,0.0,0.0,0.0,0.0,0.0,0.00070153034375,0.003845632,9.81186151471,0.0,0.0,0.0,0.0,0.0,0.0,0.0,0.0,0.0
1716886187906676243,88483,1716886187904535895,imu_link,0.00852272598464,-0.00970455205551,0.811295837418,-0.584493155647,0.0,0.0,0.0,0.0,0.0,0.0,0.0,0.0,0.0,-0.000740819864907,-0.00101591286984,-4.92579095214e-05,0.0,0.0,0.0,0.0,0.0,0.0,0.0,0.0,0.0,0.0007625655,0.00378459684375,9.81143426862,0.0,0.0,0.0,0.0,0.0,0.0,0.0,0.0,0.0
1716886188071172875,88484,1716886188070539701,imu_link,-0.00223667157094,0.00279175363634,0.811360818853,-0.584534708158,0.0,0.0,0.0,0.0,0.0,0.0,0.0,0.0,0.0,-0.0012729324149,-0.00101591286984,-4.92579095214e-05,0.0,0.0,0.0,0.0,0.0,0.0,0.0,0.0,0.0,0.001006706125,0.00366252653125,9.81155633893,0.0,0.0,0.0,0.0,0.0,0.0,0.0,0.0,0.0
1716886188236152340,88485,1716886188235554343,imu_link,0.00848483603739,-0.0098490833305,0.811350328866,-0.584415645721,0.0,0.0,0.0,0.0,0.0,0.0,0.0,0.0,0.0,-0.000740819864907,-0.000483800203432,-0.00111348312592,0.0,0.0,0.0,0.0,0.0,0.0,0.0,0.0,0.0,0.001494987375,0.00415080778125,9.8107628819,0.0,0.0,0.0,0.0,0.0,0.0,0.0,0.0,0.0
1716886188402613852,88486,1716886188400644752,imu_link,-0.00212860268572,0.00277047861632,0.81141655846,-0.58445783608,0.0,0.0,0.0,0.0,0.0,0.0,0.0,0.0,0.0,-0.000208707198501,-0.00101591286984,-4.92579095214e-05,0.0,0.0,0.0,0.0,0.0,0.0,0.0,0.0,0.0,0.00143395221875,0.0039677023125,9.8113121983,0.0,0.0,0.0,0.0,0.0,0.0,0.0,0.0,0.0
1716886188567202833,88487,1716886188565563491,imu_link,0.00811544831052,-0.0101855858721,0.811380584023,-0.584373118145,0.0,0.0,0.0,0.0,0.0,0.0,0.0,0.0,0.0,-0.000208707198501,-0.00101591286984,-0.00058137051772,0.0,0.0,0.0,0.0,0.0,0.0,0.0,0.0,0.0,0.00045738971875,0.00378459684375,9.81088495221,0.0,0.0,0.0,0.0,0.0,0.0,0.0,0.0,0.0
1716886188731204114,88488,1716886188730525927,imu_link,-0.00203768819541,0.00273882356585,0.811446677995,-0.58441649142,0.0,0.0,0.0,0.0,0.0,0.0,0.0,0.0,0.0,-0.000740819864907,-0.00101591286984,-4.92579095214e-05,0.0,0.0,0.0,0.0,0.0,0.0,0.0,0.0,0.0,0.00033531940625,0.0034794210625,9.8107628819,0.0,0.0,0.0,0.0,0.0,0.0,0.0,0.0,0.0
1716886188897465664,88489,1716886188896537038,imu_link,0.00812259066181,-0.0104149223831,0.811382751621,-0.584365966911,0.0,0.0,0.0,0.0,0.0,0.0,0.0,0.0,0.0,-0.000208707198501,-0.00101591286984,-4.92579095214e-05,0.0,0.0,0.0,0.0,0.0,0.0,0.0,0.0,0.0,0.0007625655,0.0037235616875,9.81094598737,0.0,0.0,0.0,0.0,0.0,0.0,0.0,0.0,0.0
1716886189062583294,88490,1716886189061544007,imu_link,-0.00193606226082,0.00265179308229,0.811477388579,-0.584374595172,0.0,0.0,0.0,0.0,0.0,0.0,0.0,0.0,0.0,-0.000208707198501,-0.000483800203432,-0.00058137051772,0.0,0.0,0.0,0.0,0.0,0.0,0.0,0.0,0.0,0.0008846358125,0.00354045621875,9.81057977643,0.0,0.0,0.0,0.0,0.0,0.0,0.0,0.0,0.0
1716886189227488027,88491,1716886189226518387,imu_link,0.0081627682528,-0.0104182942875,0.811412518384,-0.584324014027,0.0,0.0,0.0,0.0,0.0,0.0,0.0,0.0,0.0,-0.000208707198501,-0.00101591286984,-4.92579095214e-05,0.0,0.0,0.0,0.0,0.0,0.0,0.0,0.0,0.0,0.00131188190625,0.00390666715625,9.81100702252,0.0,0.0,0.0,0.0,0.0,0.0,0.0,0.0,0.0
1716886189393144301,88492,1716886189391541443,imu_link,-0.00192644497843,0.00262767675444,0.81148186328,-0.584368522161,0.0,0.0,0.0,0.0,0.0,0.0,0.0,0.0,0.0,-0.000208707198501,-0.000483800203432,-4.92579095214e-05,0.0,0.0,0.0,0.0,0.0,0.0,0.0,0.0,0.0,0.0008846358125,0.00366252653125,9.81143426862,0.0,0.0,0.0,0.0,0.0,0.0,0.0,0.0,0.0
1716886189558246414,88493,1716886189556559538,imu_link,0.00816334838761,-0.010455280297,0.811416704203,-0.58431753268,0.0,0.0,0.0,0.0,0.0,0.0,0.0,0.0,0.0,-0.000208707198501,-0.00101591286984,-4.92579095214e-05,0.0,0.0,0.0,0.0,0.0,0.0,0.0,0.0,0.0,0.0011287764375,0.003601491375,9.81125116315,0.0,0.0,0.0,0.0,0.0,0.0,0.0,0.0,0.0
1716886189723286071,88494,1716886189721590199,imu_link,-0.00187892615274,0.00262648404067,0.811486004225,-0.584362931888,0.0,0.0,0.0,0.0,0.0,0.0,0.0,0.0,0.0,-0.000208707198501,-0.00101591286984,-4.92579095214e-05,0.0,0.0,0.0,0.0,0.0,0.0,0.0,0.0,0.0,0.00070153034375,0.00335735075,9.81088495221,0.0,0.0,0.0,0.0,0.0,0.0,0.0,0.0,0.0
1716886189887195078,88495,1716886189886520691,imu_link,0.00796576720288,-0.0106319564399,0.811420759362,-0.584311440356,0.0,0.0,0.0,0.0,0.0,0.0,0.0,0.0,0.0,-0.000208707198501,-0.00101591286984,-4.92579095214e-05,0.0,0.0,0.0,0.0,0.0,0.0,0.0,0.0,0.0,0.0007625655,0.00390666715625,9.81082391705,0.0,0.0,0.0,0.0,0.0,0.0,0.0,0.0,0.0
1716886190053282737,88496,1716886190051539143,imu_link,-0.00185562627139,0.00267270382803,0.811490055915,-0.584357170279,0.0,0.0,0.0,0.0,0.0,0.0,0.0,0.0,0.0,0.000323405351489,-0.00101591286984,-4.92579095214e-05,0.0,0.0,0.0,0.0,0.0,0.0,0.0,0.0,0.0,0.00045738971875,0.00378459684375,9.81112909284,0.0,0.0,0.0,0.0,0.0,0.0,0.0,0.0,0.0
1716886190218495471,88497,1716886190216534607,imu_link,0.00791294922133,-0.0106471649976,0.811424827167,-0.584306232184,0.0,0.0,0.0,0.0,0.0,0.0,0.0,0.0,0.0,-0.000208707198501,-0.00101591286984,-4.92579095214e-05,0.0,0.0,0.0,0.0,0.0,0.0,0.0,0.0,0.0,0.00131188190625,0.0037235616875,9.81106805768,0.0,0.0,0.0,0.0,0.0,0.0,0.0,0.0,0.0
1716886190382400927,88498,1716886190381534991,imu_link,-0.00183342059184,0.00265558026606,0.811519611871,-0.584316272246,0.0,0.0,0.0,0.0,0.0,0.0,0.0,0.0,0.0,-0.000208707198501,-0.00101591286984,-0.00058137051772,0.0,0.0,0.0,0.0,0.0,0.0,0.0,0.0,0.0,0.0003963545625,0.00366252653125,9.81064081159,0.0,0.0,0.0,0.0,0.0,0.0,0.0,0.0,0.0
1716886190547360414,88499,1716886190546495384,imu_link,0.00782812007868,-0.0107928088209,0.811479456869,-0.584228830933,0.0,0.0,0.0,0.0,0.0,0.0,0.0,0.0,0.0,-0.000740819864907,-0.00101591286984,-0.00058137051772,0.0,0.0,0.0,0.0,0.0,0.0,0.0,0.0,0.0,0.0008846358125,0.00378459684375,9.81106805768,0.0,0.0,0.0,0.0,0.0,0.0,0.0,0.0,0.0
1716886190712231675,88500,1716886190711530659,imu_link,-0.00173961844774,0.00259195729463,0.811575250432,-0.584239564195,0.0,0.0,0.0,0.0,0.0,0.0,0.0,0.0,0.0,-0.000740819864907,-0.00101591286984,-0.00058137051772,0.0,0.0,0.0,0.0,0.0,0.0,0.0,0.0,0.0,0.00045738971875,0.00335735075,9.8103356358,0.0,0.0,0.0,0.0,0.0,0.0,0.0,0.0,0.0
1716886190879234636,88501,1716886190877532381,imu_link,0.00771291979996,-0.0110872163964,0.811481501704,-0.584222009936,0.0,0.0,0.0,0.0,0.0,0.0,0.0,0.0,0.0,-0.000208707198501,-0.000483800203432,0.000482854698677,0.0,0.0,0.0,0.0,0.0,0.0,0.0,0.0,0.0,0.0007625655,0.003845632,9.81167840924,0.0,0.0,0.0,0.0,0.0,0.0,0.0,0.0,0.0
1716886191044846671,88502,1716886191042562373,imu_link,-0.00166429086398,0.00254419366387,0.811554210383,-0.584269219473,0.0,0.0,0.0,0.0,0.0,0.0,0.0,0.0,0.0,0.000323405351489,-0.000483800203432,-4.92579095214e-05,0.0,0.0,0.0,0.0,0.0,0.0,0.0,0.0,0.0,0.00082360065625,0.00366252653125,9.81015253034,0.0,0.0,0.0,0.0,0.0,0.0,0.0,0.0,0.0
1716886191209184212,88503,1716886191207510982,imu_link,0.00756874454919,-0.0111606891243,0.811511926379,-0.584180234575,0.0,0.0,0.0,0.0,0.0,0.0,0.0,0.0,0.0,-0.000208707198501,-0.000483800203432,-0.00058137051772,0.0,0.0,0.0,0.0,0.0,0.0,0.0,0.0,0.0,0.0007625655,0.0029911398125,9.81106805768,0.0,0.0,0.0,0.0,0.0,0.0,0.0,0.0,0.0
1716886191374320887,88504,1716886191372529185,imu_link,-0.00157984087227,0.00257281318529,0.811584144835,-0.58422774719,0.0,0.0,0.0,0.0,0.0,0.0,0.0,0.0,0.0,-0.000208707198501,-0.00101591286984,-4.92579095214e-05,0.0,0.0,0.0,0.0,0.0,0.0,0.0,0.0,0.0,0.00094567096875,0.003601491375,9.81112909284,0.0,0.0,0.0,0.0,0.0,0.0,0.0,0.0,0.0
1716886191538408139,88505,1716886191537536250,imu_link,0.00738014719873,-0.011326809516,0.811541202748,-0.584138778935,0.0,0.0,0.0,0.0,0.0,0.0,0.0,0.0,0.0,-0.000208707198501,-0.000483800203432,-0.00058137051772,0.0,0.0,0.0,0.0,0.0,0.0,0.0,0.0,0.0,0.0013729170625,0.00415080778125,9.81119012799,0.0,0.0,0.0,0.0,0.0,0.0,0.0,0.0,0.0
1716886191703151373,88506,1716886191702516680,imu_link,-0.00153221997474,0.00255625346587,0.811588737997,-0.58422156604,0.0,0.0,0.0,0.0,0.0,0.0,0.0,0.0,0.0,-0.000208707198501,-0.000483800203432,0.000482854698677,0.0,0.0,0.0,0.0,0.0,0.0,0.0,0.0,0.0,0.00131188190625,0.0032352804375,9.81064081159,0.0,0.0,0.0,0.0,0.0,0.0,0.0,0.0,0.0
1716886191868235576,88507,1716886191867551281,imu_link,0.00714573824301,-0.0115200977111,0.811545725338,-0.584131630251,0.0,0.0,0.0,0.0,0.0,0.0,0.0,0.0,0.0,-0.000208707198501,-0.00101591286984,-0.00058137051772,0.0,0.0,0.0,0.0,0.0,0.0,0.0,0.0,0.0,0.00070153034375,0.00354045621875,9.81045770612,0.0,0.0,0.0,0.0,0.0,0.0,0.0,0.0,0.0
1716886192038492680,88508,1716886192037525881,imu_link,-0.00171355167104,0.00293490451594,0.811618066069,-0.584178538554,0.0,0.0,0.0,0.0,0.0,0.0,0.0,0.0,0.0,-0.000740819864907,-0.000483800203432,-4.92579095214e-05,0.0,0.0,0.0,0.0,0.0,0.0,0.0,0.0,0.0,0.00094567096875,0.00329631559375,9.81088495221,0.0,0.0,0.0,0.0,0.0,0.0,0.0,0.0,0.0
1716886192203375437,88509,1716886192202486098,imu_link,0.0067462117794,-0.0112386025887,0.811581056298,-0.584092776447,0.0,0.0,0.0,0.0,0.0,0.0,0.0,0.0,0.0,-0.000208707198501,-0.00101591286984,-0.00058137051772,0.0,0.0,0.0,0.0,0.0,0.0,0.0,0.0,0.0,0.00057946003125,0.00305217496875,9.81119012799,0.0,0.0,0.0,0.0,0.0,0.0,0.0,0.0,0.0
1716886192368423448,88510,1716886192367541540,imu_link,-0.00165593262594,0.00296315266964,0.811673642241,-0.584101340612,0.0,0.0,0.0,0.0,0.0,0.0,0.0,0.0,0.0,-0.000208707198501,-0.00101591286984,-0.00058137051772,0.0,0.0,0.0,0.0,0.0,0.0,0.0,0.0,0.0,0.00057946003125,0.0032352804375,9.81051874127,0.0,0.0,0.0,0.0,0.0,0.0,0.0,0.0,0.0
1716886192533094815,88511,1716886192532536223,imu_link,0.00645016788867,-0.0114218374281,0.811610907814,-0.584051086192,0.0,0.0,0.0,0.0,0.0,0.0,0.0,0.0,0.0,-0.000208707198501,-0.000483800203432,-4.92579095214e-05,0.0,0.0,0.0,0.0,0.0,0.0,0.0,0.0,0.0,0.00045738971875,0.00341838590625,9.81045770612,0.0,0.0,0.0,0.0,0.0,0.0,0.0,0.0,0.0
1716886192698485077,88512,1716886192697540836,imu_link,-0.00162564667025,0.00295982489147,0.811678155592,-0.584095170708,0.0,0.0,0.0,0.0,0.0,0.0,0.0,0.0,0.0,-0.000208707198501,-0.000483800203432,-4.92579095214e-05,0.0,0.0,0.0,0.0,0.0,0.0,0.0,0.0,0.0,0.0003963545625,0.003845632,9.81045770612,0.0,0.0,0.0,0.0,0.0,0.0,0.0,0.0,0.0
1716886192863415338,88513,1716886192862542750,imu_link,0.00642640903597,-0.0114555999567,0.811615066353,-0.584044908004,0.0,0.0,0.0,0.0,0.0,0.0,0.0,0.0,0.0,-0.000208707198501,-0.000483800203432,-4.92579095214e-05,0.0,0.0,0.0,0.0,0.0,0.0,0.0,0.0,0.0,0.00070153034375,0.00335735075,9.8107628819,0.0,0.0,0.0,0.0,0.0,0.0,0.0,0.0,0.0
1716886193029728387,88514,1716886193027656399,imu_link,-0.00152495946185,0.00301387183735,0.811682634738,-0.584088941464,0.0,0.0,0.0,0.0,0.0,0.0,0.0,0.0,0.0,-0.000208707198501,-0.00101591286984,-4.92579095214e-05,0.0,0.0,0.0,0.0,0.0,0.0,0.0,0.0,0.0,0.00131188190625,0.00329631559375,9.8113121983,0.0,0.0,0.0,0.0,0.0,0.0,0.0,0.0,0.0
