%time,field.header.seq,field.header.stamp,field.header.frame_id,field.orientation.x,field.orientation.y,field.orientation.z,field.orientation.w,field.orientation_covariance0,field.orientation_covariance1,field.orientation_covariance2,field.orientation_covariance3,field.orientation_covariance4,field.orientation_covariance5,field.orientation_covariance6,field.orientation_covariance7,field.orientation_covariance8,field.angular_velocity.x,field.angular_velocity.y,field.angular_velocity.z,field.angular_velocity_covariance0,field.angular_velocity_covariance1,field.angular_velocity_covariance2,field.angular_velocity_covariance3,field.angular_velocity_covariance4,field.angular_velocity_covariance5,field.angular_velocity_covariance6,field.angular_velocity_covariance7,field.angular_velocity_covariance8,field.linear_acceleration.x,field.linear_acceleration.y,field.linear_acceleration.z,field.linear_acceleration_covariance0,field.linear_acceleration_covariance1,field.linear_acceleration_covariance2,field.linear_acceleration_covariance3,field.linear_acceleration_covariance4,field.linear_acceleration_covariance5,field.linear_acceleration_covariance6,field.linear_acceleration_covariance7,field.linear_acceleration_covariance8
1716886114313495993,88039,1716886114312512409,imu_link,-0.00102863992271,-0.0134539276199,0.647866156711,0.761634674053,0.0,0.0,0.0,0.0,0.0,0.0,0.0,0.0,0.0,-0.000740819864907,-0.00101591286984,-4.92579095214e-05,0.0,0.0,0.0,0.0,0.0,0.0,0.0,0.0,0.0,0.00033531940625,0.00305217496875,9.80990838971,0.0,0.0,0.0,0.0,0.0,0.0,0.0,0.0,0.0
1716886114479285045,88040,1716886114477580936,imu_link,0.000372926171419,0.00293360684543,0.647883919962,0.761733339911,0.0,0.0,0.0,0.0,0.0,0.0,0.0,0.0,0.0,-0.000740819864907,-0.000483800203432,-0.00058137051772,0.0,0.0,0.0,0.0,0.0,0.0,0.0,0.0,0.0,0.0006404951875,0.00305217496875,9.81088495221,0.0,0.0,0.0,0.0,0.0,0.0,0.0,0.0,0.0
1716886114644197053,88041,1716886114642512262,imu_link,-0.00088874547132,-0.0135986274698,0.647791721384,0.761695590881,0.0,0.0,0.0,0.0,0.0,0.0,0.0,0.0,0.0,-0.000208707198501,-0.00101591286984,-0.00058137051772,0.0,0.0,0.0,0.0,0.0,0.0,0.0,0.0,0.0,0.0007625655,0.003113210125,9.81106805768,0.0,0.0,0.0,0.0,0.0,0.0,0.0,0.0,0.0
1716886114809196440,88042,1716886114807532531,imu_link,0.000383385979557,0.00279784365279,0.647810342987,0.761796419396,0.0,0.0,0.0,0.0,0.0,0.0,0.0,0.0,0.0,-0.000740819864907,-0.000483800203432,-0.00058137051772,0.0,0.0,0.0,0.0,0.0,0.0,0.0,0.0,0.0,0.00131188190625,0.003601491375,9.81161737409,0.0,0.0,0.0,0.0,0.0,0.0,0.0,0.0,0.0
1716886114974238752,88043,1716886114972518525,imu_link,-0.00100801226464,-0.0137003367243,0.647717037676,0.761757129136,0.0,0.0,0.0,0.0,0.0,0.0,0.0,0.0,0.0,-0.000208707198501,-0.000483800203432,-0.00058137051772,0.0,0.0,0.0,0.0,0.0,0.0,0.0,0.0,0.0,0.0007625655,0.0032352804375,9.81051874127,0.0,0.0,0.0,0.0,0.0,0.0,0.0,0.0,0.0
1716886115139234815,88044,1716886115137509864,imu_link,0.000361634194267,0.00265677150528,0.647737880927,0.761858548812,0.0,0.0,0.0,0.0,0.0,0.0,0.0,0.0,0.0,-0.000740819864907,-0.00101591286984,-0.00058137051772,0.0,0.0,0.0,0.0,0.0,0.0,0.0,0.0,0.0,0.0006404951875,0.00280803434375,9.81119012799,0.0,0.0,0.0,0.0,0.0,0.0,0.0,0.0,0.0
1716886115304283626,88045,1716886115302524535,imu_link,-0.00109096816753,-0.0138584212388,0.647642478683,0.761817546237,0.0,0.0,0.0,0.0,0.0,0.0,0.0,0.0,0.0,-0.000208707198501,-0.00101591286984,-0.00058137051772,0.0,0.0,0.0,0.0,0.0,0.0,0.0,0.0,0.0,0.00094567096875,0.00238078825,9.81082391705,0.0,0.0,0.0,0.0,0.0,0.0,0.0,0.0,0.0
1716886115469511002,88046,1716886115467525205,imu_link,0.000365545490145,0.0025580315445,0.64769841075,0.761892440941,0.0,0.0,0.0,0.0,0.0,0.0,0.0,0.0,0.0,-0.000208707198501,-0.000483800203432,-4.92579095214e-05,0.0,0.0,0.0,0.0,0.0,0.0,0.0,0.0,0.0,0.0007625655,0.00268596403125,9.81021356549,0.0,0.0,0.0,0.0,0.0,0.0,0.0,0.0,0.0
1716886115633064152,88047,1716886115632481440,imu_link,-0.00128574241618,-0.0139261949611,0.647635302875,0.761822106814,0.0,0.0,0.0,0.0,0.0,0.0,0.0,0.0,0.0,-0.000208707198501,-0.00101591286984,-4.92579095214e-05,0.0,0.0,0.0,0.0,0.0,0.0,0.0,0.0,0.0,0.000518424875,0.00231975309375,9.81027460065,0.0,0.0,0.0,0.0,0.0,0.0,0.0,0.0,0.0
1716886115798224219,88048,1716886115797597615,imu_link,0.000430816581643,0.00244831956724,0.647692397164,0.761897879498,0.0,0.0,0.0,0.0,0.0,0.0,0.0,0.0,0.0,-0.000208707198501,-0.00101591286984,-4.92579095214e-05,0.0,0.0,0.0,0.0,0.0,0.0,0.0,0.0,0.0,0.0007625655,0.00293010465625,9.81051874127,0.0,0.0,0.0,0.0,0.0,0.0,0.0,0.0,0.0
1716886115963221731,88049,1716886115962519482,imu_link,-0.0016141743001,-0.0140246348745,0.647594825524,0.761854084463,0.0,0.0,0.0,0.0,0.0,0.0,0.0,0.0,0.0,-0.000740819864907,-0.00101591286984,-0.00058137051772,0.0,0.0,0.0,0.0,0.0,0.0,0.0,0.0,0.0,0.000518424875,0.0029911398125,9.81051874127,0.0,0.0,0.0,0.0,0.0,0.0,0.0,0.0,0.0
1716886116128091011,88050,1716886116127513570,imu_link,0.000489563279035,0.00226569362405,0.647620391165,0.761959615667,0.0,0.0,0.0,0.0,0.0,0.0,0.0,0.0,0.0,-0.000208707198501,-0.00154802541983,-0.00058137051772,0.0,0.0,0.0,0.0,0.0,0.0,0.0,0.0,0.0,0.00082360065625,0.00268596403125,9.81094598737,0.0,0.0,0.0,0.0,0.0,0.0,0.0,0.0,0.0
1716886116294237185,88051,1716886116292510006,imu_link,-0.00204063870716,-0.0141276419666,0.647554602595,0.761885347139,0.0,0.0,0.0,0.0,0.0,0.0,0.0,0.0,0.0,-0.000208707198501,-0.00101591286984,-4.92579095214e-05,0.0,0.0,0.0,0.0,0.0,0.0,0.0,0.0,0.0,0.00106774128125,0.00268596403125,9.81125116315,0.0,0.0,0.0,0.0,0.0,0.0,0.0,0.0,0.0
1716886116459233834,88052,1716886116457533830,imu_link,0.000460873570741,0.00210881802943,0.647614783467,0.761964850054,0.0,0.0,0.0,0.0,0.0,0.0,0.0,0.0,0.0,-0.000740819864907,-0.00101591286984,-4.92579095214e-05,0.0,0.0,0.0,0.0,0.0,0.0,0.0,0.0,0.0,0.000518424875,0.00280803434375,9.81088495221,0.0,0.0,0.0,0.0,0.0,0.0,0.0,0.0,0.0
1716886116623175849,88053,1716886116622541684,imu_link,-0.0025120788591,-0.014185491825,0.647546864553,0.761889440463,0.0,0.0,0.0,0.0,0.0,0.0,0.0,0.0,0.0,-0.000208707198501,-0.000483800203432,-4.92579095214e-05,0.0,0.0,0.0,0.0,0.0,0.0,0.0,0.0,0.0,3.0143625e-05,0.00219768278125,9.8103356358,0.0,0.0,0.0,0.0,0.0,0.0,0.0,0.0,0.0
1716886116788461273,88054,1716886116787533938,imu_link,0.000513311680303,0.00199386275293,0.647609046769,0.761970001749,0.0,0.0,0.0,0.0,0.0,0.0,0.0,0.0,0.0,-0.000208707198501,-0.00101591286984,-4.92579095214e-05,0.0,0.0,0.0,0.0,0.0,0.0,0.0,0.0,0.0,0.0003963545625,0.00231975309375,9.8097863194,0.0,0.0,0.0,0.0,0.0,0.0,0.0,0.0,0.0
1716886116953172796,88055,1716886116952528580,imu_link,-0.00297514101678,-0.0141705370653,0.647540383386,0.761893559691,0.0,0.0,0.0,0.0,0.0,0.0,0.0,0.0,0.0,-0.000208707198501,-0.000483800203432,-4.92579095214e-05,0.0,0.0,0.0,0.0,0.0,0.0,0.0,0.0,0.0,-0.000213997,0.00280803434375,9.80948114362,0.0,0.0,0.0,0.0,0.0,0.0,0.0,0.0,0.0
1716886117265230054,88056,1716886117263574819,imu_link,0.00373459964942,0.0162009161195,0.647575826808,0.761819618818,0.0,0.0,0.0,0.0,0.0,0.0,0.0,0.0,0.0,0.000323405351489,-0.00101591286984,0.000482854698677,0.0,0.0,0.0,0.0,0.0,0.0,0.0,0.0,0.0,9.117878125e-05,0.00244182340625,9.80996942487,0.0,0.0,0.0,0.0,0.0,0.0,0.0,0.0,0.0
1716886117430139362,88057,1716886117428513954,imu_link,0.000122442642363,1.89667466051e-05,0.647628823893,0.761955964023,0.0,0.0,0.0,0.0,0.0,0.0,0.0,0.0,0.0,-0.000208707198501,-0.00101591286984,-0.00058137051772,0.0,0.0,0.0,0.0,0.0,0.0,0.0,0.0,0.0,-0.00015296184375,0.002136647625,9.80966424909,0.0,0.0,0.0,0.0,0.0,0.0,0.0,0.0,0.0
1716886117594215954,88058,1716886117593534740,imu_link,-0.0059487260497,0.0152927150303,0.647503560359,0.761885742646,0.0,0.0,0.0,0.0,0.0,0.0,0.0,0.0,0.0,-0.000208707198501,-0.00101591286984,-0.00058137051772,0.0,0.0,0.0,0.0,0.0,0.0,0.0,0.0,0.0,-3.089153125e-05,0.0025028585625,9.81009149518,0.0,0.0,0.0,0.0,0.0,0.0,0.0,0.0,0.0
1716886117759124323,88059,1716886117758517746,imu_link,0.000157945781495,-0.000101157790604,0.64755565629,0.762018134185,0.0,0.0,0.0,0.0,0.0,0.0,0.0,0.0,0.0,-0.000208707198501,-0.000483800203432,-0.00058137051772,0.0,0.0,0.0,0.0,0.0,0.0,0.0,0.0,0.0,-0.00027503215625,0.00244182340625,9.80996942487,0.0,0.0,0.0,0.0,0.0,0.0,0.0,0.0,0.0
1716886117924367428,88060,1716886117923629911,imu_link,-0.00482752486323,0.0155726487122,0.647464977203,0.761920790444,0.0,0.0,0.0,0.0,0.0,0.0,0.0,0.0,0.0,-0.000740819864907,-0.000483800203432,-4.92579095214e-05,0.0,0.0,0.0,0.0,0.0,0.0,0.0,0.0,0.0,-3.089153125e-05,0.00256389371875,9.81009149518,0.0,0.0,0.0,0.0,0.0,0.0,0.0,0.0,0.0
1716886118089189794,88061,1716886118088543667,imu_link,0.000189179915304,-0.000261726864516,0.647549778177,0.762023083963,0.0,0.0,0.0,0.0,0.0,0.0,0.0,0.0,0.0,-0.000740819864907,-0.00101591286984,-4.92579095214e-05,0.0,0.0,0.0,0.0,0.0,0.0,0.0,0.0,0.0,0.0006404951875,0.00238078825,9.81045770612,0.0,0.0,0.0,0.0,0.0,0.0,0.0,0.0,0.0
1716886118254147481,88062,1716886118253536503,imu_link,-0.00400655869526,0.0156622459228,0.64746062323,0.761927413148,0.0,0.0,0.0,0.0,0.0,0.0,0.0,0.0,0.0,-0.000208707198501,-0.000483800203432,-4.92579095214e-05,0.0,0.0,0.0,0.0,0.0,0.0,0.0,0.0,0.0,-9.19266875e-05,0.00256389371875,9.81064081159,0.0,0.0,0.0,0.0,0.0,0.0,0.0,0.0,0.0
1716886118419153902,88063,1716886118418551921,imu_link,0.00023728230894,-0.000342910486623,0.647543831444,0.762028091653,0.0,0.0,0.0,0.0,0.0,0.0,0.0,0.0,0.0,-0.000208707198501,-0.000483800203432,-4.92579095214e-05,0.0,0.0,0.0,0.0,0.0,0.0,0.0,0.0,0.0,0.00021324909375,0.00293010465625,9.81100702252,0.0,0.0,0.0,0.0,0.0,0.0,0.0,0.0,0.0
1716886118585232931,88064,1716886118583547981,imu_link,-0.00565073531133,0.015006879464,0.647456289773,0.761933865629,0.0,0.0,0.0,0.0,0.0,0.0,0.0,0.0,0.0,-0.000208707198501,-0.00101591286984,-4.92579095214e-05,0.0,0.0,0.0,0.0,0.0,0.0,0.0,0.0,0.0,-0.00027503215625,0.002136647625,9.81064081159,0.0,0.0,0.0,0.0,0.0,0.0,0.0,0.0,0.0
1716886118749103098,88065,1716886118748491959,imu_link,0.000342157288278,-0.000446119909951,0.647537037275,0.762033771733,0.0,0.0,0.0,0.0,0.0,0.0,0.0,0.0,0.0,0.000323405351489,-0.00101591286984,-4.92579095214e-05,0.0,0.0,0.0,0.0,0.0,0.0,0.0,0.0,0.0,3.0143625e-05,0.00219768278125,9.81009149518,0.0,0.0,0.0,0.0,0.0,0.0,0.0,0.0,0.0
1716886118915818720,88066,1716886118913532295,imu_link,-0.00714194933129,0.014183758584,0.647451105898,0.761941519425,0.0,0.0,0.0,0.0,0.0,0.0,0.0,0.0,0.0,-0.000208707198501,-0.00101591286984,-4.92579095214e-05,0.0,0.0,0.0,0.0,0.0,0.0,0.0,0.0,0.0,9.117878125e-05,0.0020145773125,9.8097863194,0.0,0.0,0.0,0.0,0.0,0.0,0.0,0.0,0.0
1716886119080213967,88067,1716886119078516814,imu_link,0.000400255729532,-0.000600603952706,0.647531512813,0.762038331703,0.0,0.0,0.0,0.0,0.0,0.0,0.0,0.0,0.0,-0.000740819864907,-0.00101591286984,-4.92579095214e-05,0.0,0.0,0.0,0.0,0.0,0.0,0.0,0.0,0.0,-0.000458137625,0.00256389371875,9.80996942487,0.0,0.0,0.0,0.0,0.0,0.0,0.0,0.0,0.0
1716886119247213371,88068,1716886119245535376,imu_link,-0.00657117480486,0.0144803726038,0.647445256741,0.761946046643,0.0,0.0,0.0,0.0,0.0,0.0,0.0,0.0,0.0,-0.000208707198501,-0.00101591286984,-4.92579095214e-05,0.0,0.0,0.0,0.0,0.0,0.0,0.0,0.0,0.0,-0.000458137625,0.00238078825,9.80954217877,0.0,0.0,0.0,0.0,0.0,0.0,0.0,0.0,0.0
1716886119412156342,88069,1716886119410556802,imu_link,0.000380924516185,-0.000521626880265,0.647725325179,0.761873667955,0.0,0.0,0.0,0.0,0.0,0.0,0.0,0.0,0.0,0.000323405351489,-0.000483800203432,0.00314341762325,0.0,0.0,0.0,0.0,0.0,0.0,0.0,0.0,0.0,-0.00173987590625,0.0022587179375,9.81045770612,0.0,0.0,0.0,0.0,0.0,0.0,0.0,0.0,0.0
1716886119576186963,88070,1716886119575520634,imu_link,-0.00918772531747,0.0125814112852,0.646807327257,0.762494311586,0.0,0.0,0.0,0.0,0.0,0.0,0.0,0.0,0.0,-0.00233715751488,-0.00314436324442,-0.0133520730563,0.0,0.0,0.0,0.0,0.0,0.0,0.0,0.0,0.0,-0.0461124345,0.00402873746875,9.8113121983,0.0,0.0,0.0,0.0,0.0,0.0,0.0,0.0,0.0
1716886119741089058,88071,1716886119740520167,imu_link,0.00148536050968,-0.000303339193296,0.64647040084,0.762937561356,0.0,0.0,0.0,0.0,0.0,0.0,0.0,0.0,0.0,0.010965657399,-0.00314436324442,-0.00643460897507,0.0,0.0,0.0,0.0,0.0,0.0,0.0,0.0,0.0,0.0069881514375,0.0015262960625,9.81094598737,0.0,0.0,0.0,0.0,0.0,0.0,0.0,0.0,0.0
1716886119907287318,88072,1716886119905587326,imu_link,-0.0141573802269,0.00552128092017,0.646388862872,0.762856816183,0.0,0.0,0.0,0.0,0.0,0.0,0.0,0.0,0.0,-0.00872250834759,-0.00208013802803,-4.92579095214e-05,0.0,0.0,0.0,0.0,0.0,0.0,0.0,0.0,0.0,-0.003876106375,0.004578053875,9.80905389752,0.0,0.0,0.0,0.0,0.0,0.0,0.0,0.0,0.0
1716886120071197070,88073,1716886120070516767,imu_link,0.00210309635375,-3.36222383637e-05,0.646285858331,0.763092501062,0.0,0.0,0.0,0.0,0.0,0.0,0.0,0.0,0.0,0.0104335443834,-0.00367647585262,-0.0027098208923,0.0,0.0,0.0,0.0,0.0,0.0,0.0,0.0,0.0,0.003692253,0.004578053875,9.81302118268,0.0,0.0,0.0,0.0,0.0,0.0,0.0,0.0,0.0
1716886120237192468,88074,1716886120235491528,imu_link,-0.0152666074178,0.000597008381338,0.646273232231,0.762953133279,0.0,0.0,0.0,0.0,0.0,0.0,0.0,0.0,0.0,-0.0129794096788,0.00164465022936,0.00101496730687,0.0,0.0,0.0,0.0,0.0,0.0,0.0,0.0,0.0,-0.000458137625,0.00293010465625,9.80716180768,0.0,0.0,0.0,0.0,0.0,0.0,0.0,0.0,0.0
1716886120402187131,88075,1716886120400537296,imu_link,0.00201679028972,-1.6129033948e-05,0.646178462477,0.763183678368,0.0,0.0,0.0,0.0,0.0,0.0,0.0,0.0,0.0,0.00670875653345,-0.00686915150181,-0.0027098208923,0.0,0.0,0.0,0.0,0.0,0.0,0.0,0.0,0.0,0.000518424875,0.00354045621875,9.80990838971,0.0,0.0,0.0,0.0,0.0,0.0,0.0,0.0,0.0
1716886120567222019,88076,1716886120565549574,imu_link,-0.0151366817822,3.18596374405e-05,0.646068149981,0.763129625574,0.0,0.0,0.0,0.0,0.0,0.0,0.0,0.0,0.0,-0.00872250834759,0.00164465022936,-0.00058137051772,0.0,0.0,0.0,0.0,0.0,0.0,0.0,0.0,0.0,-0.00088538371875,4.1715625e-07,9.80765008893,0.0,0.0,0.0,0.0,0.0,0.0,0.0,0.0,0.0
1716886120731418398,88077,1716886120730528689,imu_link,0.00138792942024,-0.000499093432762,0.645744486347,0.763552148127,0.0,0.0,0.0,0.0,0.0,0.0,0.0,0.0,0.0,-0.00446560794767,-0.005804926169,-0.00643460897507,0.0,0.0,0.0,0.0,0.0,0.0,0.0,0.0,0.0,0.00180016315625,0.00537151090625,9.8097863194,0.0,0.0,0.0,0.0,0.0,0.0,0.0,0.0,0.0
1716886120896097851,88078,1716886120895516412,imu_link,-0.0143428090101,0.00454023358653,0.64536782034,0.763723802548,0.0,0.0,0.0,0.0,0.0,0.0,0.0,0.0,0.0,-0.000740819864907,-0.000483800203432,-0.0048382713251,0.0,0.0,0.0,0.0,0.0,0.0,0.0,0.0,0.0,0.001983268625,0.000183522625,9.80954217877,0.0,0.0,0.0,0.0,0.0,0.0,0.0,0.0,0.0
1716886121061425477,88079,1716886121060493772,imu_link,0.000930676011311,-0.00104639494069,0.645447233893,0.763803578913,0.0,0.0,0.0,0.0,0.0,0.0,0.0,0.0,0.0,-0.00978673344757,-0.00261225063622,-4.92579095214e-05,0.0,0.0,0.0,0.0,0.0,0.0,0.0,0.0,0.0,0.00314293659375,0.0037235616875,9.80990838971,0.0,0.0,0.0,0.0,0.0,0.0,0.0,0.0,0.0
1716886121226243414,88080,1716886121225635221,imu_link,-0.00857936566809,0.0123297480056,0.645171539703,0.763890081201,0.0,0.0,0.0,0.0,0.0,0.0,0.0,0.0,0.0,0.0162867828989,-0.00208013802803,-0.00324193344229,0.0,0.0,0.0,0.0,0.0,0.0,0.0,0.0,0.0,0.00106774128125,0.00073283903125,9.81100702252,0.0,0.0,0.0,0.0,0.0,0.0,0.0,0.0,0.0
1716886121392236605,88081,1716886121390545416,imu_link,-2.34866756208e-05,-0.00177777340049,0.645289621944,0.763935954633,0.0,0.0,0.0,0.0,0.0,0.0,0.0,0.0,0.0,-0.0145757468631,0.00164465022936,0.000482854698677,0.0,0.0,0.0,0.0,0.0,0.0,0.0,0.0,0.0,0.002959831125,0.0028690695,9.81015253034,0.0,0.0,0.0,0.0,0.0,0.0,0.0,0.0,0.0
1716886121556371386,88082,1716886121555532713,imu_link,0.00385049962611,0.0149892321533,0.64524167434,0.763821758179,0.0,0.0,0.0,0.0,0.0,0.0,0.0,0.0,0.0,0.0136262206146,-0.00367647585262,0.000482854698677,0.0,0.0,0.0,0.0,0.0,0.0,0.0,0.0,0.0,0.0045467451875,0.003113210125,9.81332635846,0.0,0.0,0.0,0.0,0.0,0.0,0.0,0.0,0.0
1716886121721461246,88083,1716886121720517704,imu_link,-0.000737609115459,-0.00108882316297,0.645321456384,0.763910000149,0.0,0.0,0.0,0.0,0.0,0.0,0.0,0.0,0.0,-0.00552983304765,0.00324098787933,-4.92579095214e-05,0.0,0.0,0.0,0.0,0.0,0.0,0.0,0.0,0.0,0.0003963545625,0.000671803875,9.80984735455,0.0,0.0,0.0,0.0,0.0,0.0,0.0,0.0,0.0
1716886121886155635,88084,1716886121885523533,imu_link,0.0105070967967,0.0110116621656,0.64507428937,0.763968262042,0.0,0.0,0.0,0.0,0.0,0.0,0.0,0.0,0.0,0.000323405351489,-0.00208013802803,-0.0027098208923,0.0,0.0,0.0,0.0,0.0,0.0,0.0,0.0,0.0,0.00326500690625,0.0032352804375,9.80996942487,0.0,0.0,0.0,0.0,0.0,0.0,0.0,0.0,0.0
1716886122052229347,88085,1716886122050543086,imu_link,-0.00142531631077,-0.000648636518358,0.645319938761,0.76391080918,0.0,0.0,0.0,0.0,0.0,0.0,0.0,0.0,0.0,-0.0028692702977,0.00696577619493,0.00261130507326,0.0,0.0,0.0,0.0,0.0,0.0,0.0,0.0,0.0,0.00021324909375,-0.00024372346875,9.8088097569,0.0,0.0,0.0,0.0,0.0,0.0,0.0,0.0,0.0
1716886122217194168,88086,1716886122215535821,imu_link,0.0143426973686,0.0056428557482,0.645140197024,0.763908745463,0.0,0.0,0.0,0.0,0.0,0.0,0.0,0.0,0.0,0.00404819355067,-0.00527281361901,-0.00164559567591,0.0,0.0,0.0,0.0,0.0,0.0,0.0,0.0,0.0,0.00216637409375,0.0039677023125,9.81100702252,0.0,0.0,0.0,0.0,0.0,0.0,0.0,0.0,0.0
1716886122382306238,88087,1716886122380550254,imu_link,-0.000708371741882,0.000481548556586,0.645021905567,0.764163600061,0.0,0.0,0.0,0.0,0.0,0.0,0.0,0.0,0.0,0.00990143229905,0.00643366317927,-0.00324193344229,0.0,0.0,0.0,0.0,0.0,0.0,0.0,0.0,0.0,0.00180016315625,0.00183147184375,9.81216669049,0.0,0.0,0.0,0.0,0.0,0.0,0.0,0.0,0.0
1716886122547194452,88088,1716886122545543671,imu_link,0.0137486373441,-0.00672769695666,0.644912798237,0.764102869865,0.0,0.0,0.0,0.0,0.0,0.0,0.0,0.0,0.0,-0.0135115217632,-0.00154802541983,-0.00058137051772,0.0,0.0,0.0,0.0,0.0,0.0,0.0,0.0,0.0,0.0038143233125,0.0056766866875,9.81094598737,0.0,0.0,0.0,0.0,0.0,0.0,0.0,0.0,0.0
1716886122712213603,88089,1716886122710522802,imu_link,-7.87014431159e-05,0.00129826458474,0.644861511031,0.764298331744,0.0,0.0,0.0,0.0,0.0,0.0,0.0,0.0,0.0,0.014158332699,-0.00101591286984,-0.00217770834231,0.0,0.0,0.0,0.0,0.0,0.0,0.0,0.0,0.0,0.0013729170625,0.00244182340625,9.81057977643,0.0,0.0,0.0,0.0,0.0,0.0,0.0,0.0,0.0
1716886122877205817,88090,1716886122875518560,imu_link,0.00254369499585,-0.0153853475794,0.644884572361,0.764120873309,0.0,0.0,0.0,0.0,0.0,0.0,0.0,0.0,0.0,-0.0124472966632,0.00164465022936,0.00154707985687,0.0,0.0,0.0,0.0,0.0,0.0,0.0,0.0,0.0,0.0011287764375,0.00378459684375,9.80972528424,0.0,0.0,0.0,0.0,0.0,0.0,0.0,0.0,0.0
1716886123041206465,88091,1716886123040534884,imu_link,0.000658207466631,0.000964550790669,0.644963614248,0.764212387168,0.0,0.0,0.0,0.0,0.0,0.0,0.0,0.0,0.0,0.00564453143347,-0.00420858840261,-4.92579095214e-05,0.0,0.0,0.0,0.0,0.0,0.0,0.0,0.0,0.0,0.0016170576875,0.0039677023125,9.81143426862,0.0,0.0,0.0,0.0,0.0,0.0,0.0,0.0,0.0
1716886123206422913,88092,1716886123205538472,imu_link,-0.00909106076635,-0.0132020985828,0.644912317391,0.764088450432,0.0,0.0,0.0,0.0,0.0,0.0,0.0,0.0,0.0,-0.00925462136325,0.00270887532934,0.000482854698677,0.0,0.0,0.0,0.0,0.0,0.0,0.0,0.0,0.0,3.0143625e-05,0.00158733121875,9.80990838971,0.0,0.0,0.0,0.0,0.0,0.0,0.0,0.0,0.0
1716886123372142842,88093,1716886123371527748,imu_link,0.000815255447846,-1.50268224086e-05,0.64486320824,0.764297571494,0.0,0.0,0.0,0.0,0.0,0.0,0.0,0.0,0.0,0.000323405351489,-0.0074012640518,-0.00217770834231,0.0,0.0,0.0,0.0,0.0,0.0,0.0,0.0,0.0,0.0003963545625,0.00415080778125,9.8103356358,0.0,0.0,0.0,0.0,0.0,0.0,0.0,0.0,0.0
1716886123537467473,88094,1716886123536551531,imu_link,-0.0153640613247,-0.000479565064191,0.64454989226,0.764407713216,0.0,0.0,0.0,0.0,0.0,0.0,0.0,0.0,0.0,0.00404819355067,-0.00101591286984,-0.00377404599228,0.0,0.0,0.0,0.0,0.0,0.0,0.0,0.0,0.0,0.0011287764375,4.1715625e-07,9.81186151471,0.0,0.0,0.0,0.0,0.0,0.0,0.0,0.0,0.0
1716886123702460012,88095,1716886123701534730,imu_link,0.000716275184506,-0.00074602009261,0.644366151606,0.764716413494,0.0,0.0,0.0,0.0,0.0,0.0,0.0,0.0,0.0,-0.0108509594789,-0.00527281361901,-0.00430615877511,0.0,0.0,0.0,0.0,0.0,0.0,0.0,0.0,0.0,0.0011287764375,0.0054325460625,9.81057977643,0.0,0.0,0.0,0.0,0.0,0.0,0.0,0.0,0.0
1716886123867354958,88096,1716886123866628397,imu_link,-0.00939393737108,0.0118395964613,0.644020973999,0.764858524791,0.0,0.0,0.0,0.0,0.0,0.0,0.0,0.0,0.0,0.00830509418342,-0.00474070106902,-0.00430615877511,0.0,0.0,0.0,0.0,0.0,0.0,0.0,0.0,0.0,0.00222740925,0.00097697965625,9.8117394444,0.0,0.0,0.0,0.0,0.0,0.0,0.0,0.0,0.0
1716886124033457130,88097,1716886124031525530,imu_link,-5.24126569358e-05,-0.0015504948262,0.64420460878,0.764851629563,0.0,0.0,0.0,0.0,0.0,0.0,0.0,0.0,0.0,-0.0129794096788,0.00270887532934,0.00154707985687,0.0,0.0,0.0,0.0,0.0,0.0,0.0,0.0,0.0,0.00363121784375,0.001160085125,9.80905389752,0.0,0.0,0.0,0.0,0.0,0.0,0.0,0.0,0.0
1716886124197245590,88098,1716886124196536552,imu_link,0.0034717775173,0.0149083599626,0.643991314332,0.764879647153,0.0,0.0,0.0,0.0,0.0,0.0,0.0,0.0,0.0,0.0104335443834,-0.00633703871899,-0.00217770834231,0.0,0.0,0.0,0.0,0.0,0.0,0.0,0.0,0.0,0.00253258503125,0.002624928875,9.80960321393,0.0,0.0,0.0,0.0,0.0,0.0,0.0,0.0,0.0
1716886124362399333,88099,1716886124361531887,imu_link,-0.00104780448975,-0.00145092282772,0.644138865815,0.764906476947,0.0,0.0,0.0,0.0,0.0,0.0,0.0,0.0,0.0,-0.00978673344757,0.00377310042932,0.00101496730687,0.0,0.0,0.0,0.0,0.0,0.0,0.0,0.0,0.0,0.001006706125,-0.00012165315625,9.81003046002,0.0,0.0,0.0,0.0,0.0,0.0,0.0,0.0,0.0
1716886124527308496,88100,1716886124526502039,imu_link,0.0107723205721,0.0106346143317,0.64406113648,0.764824237694,0.0,0.0,0.0,0.0,0.0,0.0,0.0,0.0,0.0,0.00564453143347,-0.005804926169,-4.92579095214e-05,0.0,0.0,0.0,0.0,0.0,0.0,0.0,0.0,0.0,0.00363121784375,0.003845632,9.80960321393,0.0,0.0,0.0,0.0,0.0,0.0,0.0,0.0,0.0
1716886124693579448,88101,1716886124691511970,imu_link,-0.00123711424257,-0.000933612935424,0.643967289722,0.765051454272,0.0,0.0,0.0,0.0,0.0,0.0,0.0,0.0,0.0,-0.00233715751488,0.00324098787933,-0.0027098208923,0.0,0.0,0.0,0.0,0.0,0.0,0.0,0.0,0.0,0.00143395221875,0.000183522625,9.81057977643,0.0,0.0,0.0,0.0,0.0,0.0,0.0,0.0,0.0
1716886124857128075,88102,1716886124856526745,imu_link,0.0119204905053,0.00739257618471,0.643833439549,0.765037093115,0.0,0.0,0.0,0.0,0.0,0.0,0.0,0.0,0.0,-0.0119151845789,-0.00208013802803,-0.00111348312592,0.0,0.0,0.0,0.0,0.0,0.0,0.0,0.0,0.0,0.00241051471875,0.00390666715625,9.81222772565,0.0,0.0,0.0,0.0,0.0,0.0,0.0,0.0,0.0
1716886125022433708,88103,1716886125021509092,imu_link,-0.0017202560172,-0.000876572701088,0.643828296029,0.765167561761,0.0,0.0,0.0,0.0,0.0,0.0,0.0,0.0,0.0,0.00724086908344,0.00164465022936,-0.00111348312592,0.0,0.0,0.0,0.0,0.0,0.0,0.0,0.0,0.0,0.00070153034375,-0.0021358133125,9.81021356549,0.0,0.0,0.0,0.0,0.0,0.0,0.0,0.0,0.0
1716886125187647916,88104,1716886125186648186,imu_link,0.0131377109306,0.00542734348123,0.643760341387,0.765095136144,0.0,0.0,0.0,0.0,0.0,0.0,0.0,0.0,0.0,-0.00552983304765,-0.00154802541983,-4.92579095214e-05,0.0,0.0,0.0,0.0,0.0,0.0,0.0,0.0,0.0,0.0030819014375,0.0032352804375,9.8103356358,0.0,0.0,0.0,0.0,0.0,0.0,0.0,0.0,0.0
1716886125353198194,88105,1716886125351537821,imu_link,-0.00126255192102,-0.000267449376216,0.643960656794,0.76505751871,0.0,0.0,0.0,0.0,0.0,0.0,0.0,0.0,0.0,0.013094107599,4.83123465589e-05,0.00207919252327,0.0,0.0,0.0,0.0,0.0,0.0,0.0,0.0,0.0,0.00241051471875,0.00244182340625,9.81045770612,0.0,0.0,0.0,0.0,0.0,0.0,0.0,0.0,0.0
1716886125518166459,88106,1716886125516511563,imu_link,0.0137192452251,0.0031601387604,0.644029305161,0.76487126363,0.0,0.0,0.0,0.0,0.0,0.0,0.0,0.0,0.0,-0.0135115217632,0.00377310042932,0.00207919252327,0.0,0.0,0.0,0.0,0.0,0.0,0.0,0.0,0.0,-0.000458137625,0.0007938741875,9.81064081159,0.0,0.0,0.0,0.0,0.0,0.0,0.0,0.0,0.0
1716886125682431642,88107,1716886125681551656,imu_link,-0.00144325426507,-0.000243557416835,0.64402472696,0.765003273693,0.0,0.0,0.0,0.0,0.0,0.0,0.0,0.0,0.0,0.0114977694834,-0.00367647585262,-0.00111348312592,0.0,0.0,0.0,0.0,0.0,0.0,0.0,0.0,0.0,0.00302086628125,0.003113210125,9.81320428815,0.0,0.0,0.0,0.0,0.0,0.0,0.0,0.0,0.0
1716886125847416674,88108,1716886125846551923,imu_link,0.0144552572589,0.00240711116763,0.644019859512,0.764868401693,0.0,0.0,0.0,0.0,0.0,0.0,0.0,0.0,0.0,-0.0028692702977,0.00430521297931,0.00101496730687,0.0,0.0,0.0,0.0,0.0,0.0,0.0,0.0,0.0,0.00070153034375,0.00042766325,9.81027460065,0.0,0.0,0.0,0.0,0.0,0.0,0.0,0.0,0.0
1716886126012395270,88109,1716886126011493156,imu_link,-0.00137848710513,-0.000726256542611,0.643879559126,0.765125274491,0.0,0.0,0.0,0.0,0.0,0.0,0.0,0.0,0.0,0.00138763056789,-0.00686915150181,-0.00324193344229,0.0,0.0,0.0,0.0,0.0,0.0,0.0,0.0,0.0,0.00363121784375,0.0039677023125,9.81100702252,0.0,0.0,0.0,0.0,0.0,0.0,0.0,0.0,0.0
1716886126178304946,88110,1716886126176516030,imu_link,0.0136068070521,0.00687700907791,0.643768113672,0.765068740289,0.0,0.0,0.0,0.0,0.0,0.0,0.0,0.0,0.0,0.00404819355067,0.00111253744654,-0.00058137051772,0.0,0.0,0.0,0.0,0.0,0.0,0.0,0.0,0.0,0.00094567096875,0.00061076871875,9.80911493268,0.0,0.0,0.0,0.0,0.0,0.0,0.0,0.0,0.0
1716886126342287669,88111,1716886126341588692,imu_link,-0.00126509329504,-0.00146540159941,0.643800350885,0.765191061329,0.0,0.0,0.0,0.0,0.0,0.0,0.0,0.0,0.0,-0.00765828324761,-0.00527281361901,-0.00058137051772,0.0,0.0,0.0,0.0,0.0,0.0,0.0,0.0,0.0,0.00424156940625,0.0049442648125,9.81125116315,0.0,0.0,0.0,0.0,0.0,0.0,0.0,0.0,0.0
1716886126507322502,88112,1716886126506631736,imu_link,0.010550985505,0.0110146793729,0.643487740989,0.765304436639,0.0,0.0,0.0,0.0,0.0,0.0,0.0,0.0,0.0,0.00830509418342,-0.00101591286984,-0.00377404599228,0.0,0.0,0.0,0.0,0.0,0.0,0.0,0.0,0.0,0.00118981159375,0.0015262960625,9.81332635846,0.0,0.0,0.0,0.0,0.0,0.0,0.0,0.0,0.0
1716886126672185038,88113,1716886126671545654,imu_link,-0.00162279797986,-0.00169506008041,0.643392695661,0.76553271156,0.0,0.0,0.0,0.0,0.0,0.0,0.0,0.0,0.0,-0.0135115217632,4.83123465589e-05,-0.0027098208923,0.0,0.0,0.0,0.0,0.0,0.0,0.0,0.0,0.0,0.00204430378125,0.00244182340625,9.80844354596,0.0,0.0,0.0,0.0,0.0,0.0,0.0,0.0,0.0
1716886126837442490,88114,1716886126836510589,imu_link,0.0113468564777,0.00942889076646,0.643084743753,0.765652896043,0.0,0.0,0.0,0.0,0.0,0.0,0.0,0.0,0.0,0.00724086908344,-0.00474070106902,-0.00377404599228,0.0,0.0,0.0,0.0,0.0,0.0,0.0,0.0,0.0,0.0033260420625,0.00219768278125,9.81247186627,0.0,0.0,0.0,0.0,0.0,0.0,0.0,0.0,0.0
1716886127002146536,88115,1716886127001556806,imu_link,-0.00235876941562,-0.00168503791672,0.64311683728,0.765762581,0.0,0.0,0.0,0.0,0.0,0.0,0.0,0.0,0.0,-0.0135115217632,0.00217676277935,-0.00058137051772,0.0,0.0,0.0,0.0,0.0,0.0,0.0,0.0,0.0,-0.00064124309375,0.000671803875,9.81027460065,0.0,0.0,0.0,0.0,0.0,0.0,0.0,0.0,0.0
1716886127168590757,88116,1716886127166533403,imu_link,0.0123261386141,0.00565489690583,0.64285289067,0.765869603395,0.0,0.0,0.0,0.0,0.0,0.0,0.0,0.0,0.0,-0.0028692702977,-0.00793337660179,-0.00324193344229,0.0,0.0,0.0,0.0,0.0,0.0,0.0,0.0,0.0,0.0064998701875,-0.00060993440625,9.81027460065,0.0,0.0,0.0,0.0,0.0,0.0,0.0,0.0,0.0
1716886127332310862,88117,1716886127331529799,imu_link,-0.00151743973282,-0.00126158268465,0.642972101794,0.765887055708,0.0,0.0,0.0,0.0,0.0,0.0,0.0,0.0,0.0,0.010965657399,-0.00793337660179,0.00101496730687,0.0,0.0,0.0,0.0,0.0,0.0,0.0,0.0,0.0,0.001494987375,-0.00195270784375,9.81070184674,0.0,0.0,0.0,0.0,0.0,0.0,0.0,0.0,0.0
1716886127497173349,88118,1716886127496519762,imu_link,0.0127796058286,0.00698265543006,0.643100426233,0.765643367356,0.0,0.0,0.0,0.0,0.0,0.0,0.0,0.0,0.0,-0.000740819864907,-0.00367647585262,0.00314341762325,0.0,0.0,0.0,0.0,0.0,0.0,0.0,0.0,0.0,0.00680504596875,0.0056766866875,9.81045770612,0.0,0.0,0.0,0.0,0.0,0.0,0.0,0.0,0.0
1716886127662445418,88119,1716886127661558636,imu_link,-0.00125374003518,-0.000728234261501,0.643036164005,0.765834440067,0.0,0.0,0.0,0.0,0.0,0.0,0.0,0.0,0.0,0.00670875653345,0.00164465022936,-0.00217770834231,0.0,0.0,0.0,0.0,0.0,0.0,0.0,0.0,0.0,0.00515709675,0.00109904996875,9.81363153424,0.0,0.0,0.0,0.0,0.0,0.0,0.0,0.0,0.0
1716886127829185664,88120,1716886127827534489,imu_link,0.01277386523,0.00517883332277,0.643071947987,0.765681707869,0.0,0.0,0.0,0.0,0.0,0.0,0.0,0.0,0.0,-0.0167041970631,0.00270887532934,0.00154707985687,0.0,0.0,0.0,0.0,0.0,0.0,0.0,0.0,0.0,0.0046688155,0.0042118429375,9.80850458112,0.0,0.0,0.0,0.0,0.0,0.0,0.0,0.0,0.0
1716886127994208258,88121,1716886127992539713,imu_link,-0.00144153839184,-0.00041829401698,0.64303526442,0.765835096943,0.0,0.0,0.0,0.0,0.0,0.0,0.0,0.0,0.0,0.0157546708146,4.83123465589e-05,-0.00164559567591,0.0,0.0,0.0,0.0,0.0,0.0,0.0,0.0,0.0,0.0046688155,0.001160085125,9.81167840924,0.0,0.0,0.0,0.0,0.0,0.0,0.0,0.0,0.0
1716886128159053299,88122,1716886128158482960,imu_link,0.0138825668449,0.00287196664629,0.642932877202,0.765791317238,0.0,0.0,0.0,0.0,0.0,0.0,0.0,0.0,0.0,-0.00978673344757,0.00590155109495,-0.00058137051772,0.0,0.0,0.0,0.0,0.0,0.0,0.0,0.0,0.0,0.0045467451875,0.00390666715625,9.80990838971,0.0,0.0,0.0,0.0,0.0,0.0,0.0,0.0,0.0
1716886128325261417,88123,1716886128324560310,imu_link,-0.00150078214898,-0.000177325733937,0.643232623543,0.765669320411,0.0,0.0,0.0,0.0,0.0,0.0,0.0,0.0,0.0,0.010965657399,-0.00367647585262,0.00367553017324,0.0,0.0,0.0,0.0,0.0,0.0,0.0,0.0,0.0,0.00241051471875,0.0034794210625,9.81350946393,0.0,0.0,0.0,0.0,0.0,0.0,0.0,0.0,0.0
1716886128490073352,88124,1716886128489510099,imu_link,0.0139384237381,0.000443515266971,0.643200165358,0.765571075029,0.0,0.0,0.0,0.0,0.0,0.0,0.0,0.0,0.0,-0.0113830715632,0.00590155109495,0.000482854698677,0.0,0.0,0.0,0.0,0.0,0.0,0.0,0.0,0.0,0.00253258503125,0.00012248746875,9.80984735455,0.0,0.0,0.0,0.0,0.0,0.0,0.0,0.0,0.0
1716886128656212114,88125,1716886128654511241,imu_link,-0.00191854270308,-1.804303099e-05,0.643124987437,0.765758819344,0.0,0.0,0.0,0.0,0.0,0.0,0.0,0.0,0.0,0.00670875653345,-0.00420858840261,-0.00217770834231,0.0,0.0,0.0,0.0,0.0,0.0,0.0,0.0,0.0,0.0040584639375,0.00439494840625,9.81070184674,0.0,0.0,0.0,0.0,0.0,0.0,0.0,0.0,0.0
1716886128821371663,88126,1716886128819624462,imu_link,0.0147118465821,0.000575299173179,0.643053040645,0.765680101294,0.0,0.0,0.0,0.0,0.0,0.0,0.0,0.0,0.0,0.00351608100068,0.00217676277935,-4.92579095214e-05,0.0,0.0,0.0,0.0,0.0,0.0,0.0,0.0,0.0,0.001006706125,0.001648366375,9.81045770612,0.0,0.0,0.0,0.0,0.0,0.0,0.0,0.0,0.0
1716886128986317410,88127,1716886128984497357,imu_link,-0.00192188487681,-0.000658122148597,0.643077415111,0.765798479633,0.0,0.0,0.0,0.0,0.0,0.0,0.0,0.0,0.0,-0.00606194559764,-0.00474070106902,-0.00058137051772,0.0,0.0,0.0,0.0,0.0,0.0,0.0,0.0,0.0,0.00399742878125,0.006042897625,9.81137323346,0.0,0.0,0.0,0.0,0.0,0.0,0.0,0.0,0.0
1716886129153777246,88128,1716886129151507977,imu_link,0.0151606263302,0.00440863418569,0.642959355984,0.765737543749,0.0,0.0,0.0,0.0,0.0,0.0,0.0,0.0,0.0,0.0136262206146,-0.00154802541983,-0.00058137051772,0.0,0.0,0.0,0.0,0.0,0.0,0.0,0.0,0.0,0.003448112375,0.001648366375,9.81192254987,0.0,0.0,0.0,0.0,0.0,0.0,0.0,0.0,0.0
1716886129317237858,88129,1716886129316520579,imu_link,-0.00140611670033,-0.00147299550442,0.643265803229,0.765640228512,0.0,0.0,0.0,0.0,0.0,0.0,0.0,0.0,0.0,-0.0151078598788,-0.00261225063622,0.00367553017324,0.0,0.0,0.0,0.0,0.0,0.0,0.0,0.0,0.0,0.00851403034375,0.00500529996875,9.80917596784,0.0,0.0,0.0,0.0,0.0,0.0,0.0,0.0,0.0
1716886129483177474,88130,1716886129481523644,imu_link,0.0151608154449,-0.0027474477183,0.644578504491,0.764382857444,0.0,0.0,0.0,0.0,0.0,0.0,0.0,0.0,0.0,0.000323405351489,-0.00154802541983,0.0222994701214,0.0,0.0,0.0,0.0,0.0,0.0,0.0,0.0,0.0,0.0441585615937,0.00134319059375,9.81192254987,0.0,0.0,0.0,0.0,0.0,0.0,0.0,0.0,0.0
1716886129647386781,88131,1716886129646630848,imu_link,-0.00110635963082,8.29751766139e-05,0.644649717903,0.76447727912,0.0,0.0,0.0,0.0,0.0,0.0,0.0,0.0,0.0,-0.0012729324149,-0.00101591286984,-4.92579095214e-05,0.0,0.0,0.0,0.0,0.0,0.0,0.0,0.0,0.0,0.00131188190625,0.0015262960625,9.80984735455,0.0,0.0,0.0,0.0,0.0,0.0,0.0,0.0,0.0
1716886129812171293,88132,1716886129811519160,imu_link,0.0152491955899,-0.00195953982776,0.644637417056,0.764333842486,0.0,0.0,0.0,0.0,0.0,0.0,0.0,0.0,0.0,-0.0012729324149,-0.00101591286984,0.00101496730687,0.0,0.0,0.0,0.0,0.0,0.0,0.0,0.0,0.0,0.00338707721875,0.00195354215625,9.80996942487,0.0,0.0,0.0,0.0,0.0,0.0,0.0,0.0,0.0
1716886129977477686,88133,1716886129976546619,imu_link,-0.00111284963861,1.67313211525e-05,0.644742756976,0.764398808615,0.0,0.0,0.0,0.0,0.0,0.0,0.0,0.0,0.0,-0.000740819864907,-0.00101591286984,0.000482854698677,0.0,0.0,0.0,0.0,0.0,0.0,0.0,0.0,0.0,0.00320397175,0.00238078825,9.81082391705,0.0,0.0,0.0,0.0,0.0,0.0,0.0,0.0,0.0
1716886130142118278,88134,1716886130141506706,imu_link,0.0153978828382,-0.00106780098975,0.644629010487,0.764339717563,0.0,0.0,0.0,0.0,0.0,0.0,0.0,0.0,0.0,0.000323405351489,-0.000483800203432,-0.00058137051772,0.0,0.0,0.0,0.0,0.0,0.0,0.0,0.0,0.0,0.0033260420625,0.001892507,9.81039667096,0.0,0.0,0.0,0.0,0.0,0.0,0.0,0.0,0.0
1716886130308319019,88135,1716886130306536117,imu_link,-0.0010557284488,-4.09636505796e-05,0.644702728374,0.764432649608,0.0,0.0,0.0,0.0,0.0,0.0,0.0,0.0,0.0,-0.000208707198501,-0.000483800203432,-4.92579095214e-05,0.0,0.0,0.0,0.0,0.0,0.0,0.0,0.0,0.0,0.0033260420625,0.0015262960625,9.81045770612,0.0,0.0,0.0,0.0,0.0,0.0,0.0,0.0,0.0
1716886130473237609,88136,1716886130471557626,imu_link,0.0154549254826,-0.000485526589454,0.644588538248,0.764373289631,0.0,0.0,0.0,0.0,0.0,0.0,0.0,0.0,0.0,-0.000208707198501,-0.000483800203432,-0.00058137051772,0.0,0.0,0.0,0.0,0.0,0.0,0.0,0.0,0.0,0.00320397175,0.001648366375,9.81119012799,0.0,0.0,0.0,0.0,0.0,0.0,0.0,0.0,0.0
1716886130638614593,88137,1716886130636625287,imu_link,-0.00100328693579,-0.000133166831393,0.64462879558,0.764495056616,0.0,0.0,0.0,0.0,0.0,0.0,0.0,0.0,0.0,-0.000208707198501,-0.00101591286984,-0.00058137051772,0.0,0.0,0.0,0.0,0.0,0.0,0.0,0.0,0.0,0.0038143233125,0.0017704366875,9.81094598737,0.0,0.0,0.0,0.0,0.0,0.0,0.0,0.0,0.0
1716886130803190454,88138,1716886130801528418,imu_link,0.0154916476299,0.000533922741191,0.64451393232,0.764435422273,0.0,0.0,0.0,0.0,0.0,0.0,0.0,0.0,0.0,-0.000208707198501,-0.000483800203432,-0.00058137051772,0.0,0.0,0.0,0.0,0.0,0.0,0.0,0.0,0.0,0.003448112375,0.00158733121875,9.81112909284,0.0,0.0,0.0,0.0,0.0,0.0,0.0,0.0,0.0
1716886130967346683,88139,1716886130966664968,imu_link,-0.000965707539256,-0.00020667458714,0.64455459946,0.764557645315,0.0,0.0,0.0,0.0,0.0,0.0,0.0,0.0,0.0,-0.000208707198501,-0.00101591286984,-0.00058137051772,0.0,0.0,0.0,0.0,0.0,0.0,0.0,0.0,0.0,0.00387535846875,0.00207561246875,9.81100702252,0.0,0.0,0.0,0.0,0.0,0.0,0.0,0.0,0.0
1716886131132392075,88140,1716886131131529420,imu_link,0.015489139897,0.00130341667693,0.644439044177,0.764497682135,0.0,0.0,0.0,0.0,0.0,0.0,0.0,0.0,0.0,-0.000208707198501,-0.00101591286984,-0.00058137051772,0.0,0.0,0.0,0.0,0.0,0.0,0.0,0.0,0.0,0.00424156940625,0.0022587179375,9.81137323346,0.0,0.0,0.0,0.0,0.0,0.0,0.0,0.0,0.0
1716886131298896133,88141,1716886131296536354,imu_link,-0.000902570578268,-0.000249830240676,0.644513717136,0.764592173236,0.0,0.0,0.0,0.0,0.0,0.0,0.0,0.0,0.0,-0.000208707198501,-0.00101591286984,-4.92579095214e-05,0.0,0.0,0.0,0.0,0.0,0.0,0.0,0.0,0.0,0.00363121784375,0.002136647625,9.81143426862,0.0,0.0,0.0,0.0,0.0,0.0,0.0,0.0,0.0
1716886131462566727,88142,1716886131461559929,imu_link,0.0154015493837,0.002361828417,0.644431481811,0.764503289263,0.0,0.0,0.0,0.0,0.0,0.0,0.0,0.0,0.0,-0.000740819864907,-0.00101591286984,-4.92579095214e-05,0.0,0.0,0.0,0.0,0.0,0.0,0.0,0.0,0.0,0.0035701826875,0.0022587179375,9.81137323346,0.0,0.0,0.0,0.0,0.0,0.0,0.0,0.0,0.0
1716886131628658257,88143,1716886131626525793,imu_link,-0.000909828745825,-0.000298053689967,0.644439499614,0.76465470293,0.0,0.0,0.0,0.0,0.0,0.0,0.0,0.0,0.0,-0.000740819864907,-0.000483800203432,-0.00111348312592,0.0,0.0,0.0,0.0,0.0,0.0,0.0,0.0,0.0,0.00320397175,0.0020145773125,9.81100702252,0.0,0.0,0.0,0.0,0.0,0.0,0.0,0.0,0.0
1716886131793211406,88144,1716886131791529144,imu_link,0.0153497063292,0.00278247797276,0.644356829708,0.764565837807,0.0,0.0,0.0,0.0,0.0,0.0,0.0,0.0,0.0,-0.000208707198501,-0.00101591286984,-4.92579095214e-05,0.0,0.0,0.0,0.0,0.0,0.0,0.0,0.0,0.0,0.00350914753125,0.0015262960625,9.81100702252,0.0,0.0,0.0,0.0,0.0,0.0,0.0,0.0,0.0
1716886131957155012,88145,1716886131956537770,imu_link,-0.000858086799831,-0.000370060715924,0.644431916045,0.764661122541,0.0,0.0,0.0,0.0,0.0,0.0,0.0,0.0,0.0,-0.000740819864907,-0.00101591286984,-4.92579095214e-05,0.0,0.0,0.0,0.0,0.0,0.0,0.0,0.0,0.0,0.0035701826875,0.0022587179375,9.81106805768,0.0,0.0,0.0,0.0,0.0,0.0,0.0,0.0,0.0
