%time,field.header.seq,field.header.stamp,field.header.frame_id,field.orientation.x,field.orientation.y,field.orientation.z,field.orientation.w,field.orientation_covariance0,field.orientation_covariance1,field.orientation_covariance2,field.orientation_covariance3,field.orientation_covariance4,field.orientation_covariance5,field.orientation_covariance6,field.orientation_covariance7,field.orientation_covariance8,field.angular_velocity.x,field.angular_velocity.y,field.angular_velocity.z,field.angular_velocity_covariance0,field.angular_velocity_covariance1,field.angular_velocity_covariance2,field.angular_velocity_covariance3,field.angular_velocity_covariance4,field.angular_velocity_covariance5,field.angular_velocity_covariance6,field.angular_velocity_covariance7,field.angular_velocity_covariance8,field.linear_acceleration.x,field.linear_acceleration.y,field.linear_acceleration.z,field.linear_acceleration_covariance0,field.linear_acceleration_covariance1,field.linear_acceleration_covariance2,field.linear_acceleration_covariance3,field.linear_acceleration_covariance4,field.linear_acceleration_covariance5,field.linear_acceleration_covariance6,field.linear_acceleration_covariance7,field.linear_acceleration_covariance8
1716886405009160451,89792,1716886405008514243,imu_link,0.007509908515,-0.00475161260831,0.987516059023,0.157267468423,0.0,0.0,0.0,0.0,0.0,0.0,0.0,0.0,0.0,-0.000208707198501,-0.00101591286984,-4.92579095214e-05,0.0,0.0,0.0,0.0,0.0,0.0,0.0,0.0,0.0,0.00741539753125,0.0007938741875,9.8103356358,0.0,0.0,0.0,0.0,0.0,0.0,0.0,0.0,0.0
1716886405174437016,89793,1716886405173534817,imu_link,-0.00616686035108,0.00438356588429,0.987518723051,0.157319820134,0.0,0.0,0.0,0.0,0.0,0.0,0.0,0.0,0.0,-0.000208707198501,-0.00101591286984,-0.00058137051772,0.0,0.0,0.0,0.0,0.0,0.0,0.0,0.0,0.0,0.00729332721875,0.001160085125,9.81064081159,0.0,0.0,0.0,0.0,0.0,0.0,0.0,0.0,0.0
1716886405339445096,89794,1716886405338554512,imu_link,0.00761652252312,-0.0048767265516,0.987506525135,0.157318368091,0.0,0.0,0.0,0.0,0.0,0.0,0.0,0.0,0.0,-0.000740819864907,-0.00101591286984,-4.92579095214e-05,0.0,0.0,0.0,0.0,0.0,0.0,0.0,0.0,0.0,0.0072322920625,0.001160085125,9.8103356358,0.0,0.0,0.0,0.0,0.0,0.0,0.0,0.0,0.0
1716886405504522493,89795,1716886405503586661,imu_link,-0.00597868477358,0.00437901812803,0.987518545727,0.157328323492,0.0,0.0,0.0,0.0,0.0,0.0,0.0,0.0,0.0,-0.000208707198501,-0.00101591286984,-4.92579095214e-05,0.0,0.0,0.0,0.0,0.0,0.0,0.0,0.0,0.0,0.007598503,0.00170940153125,9.81015253034,0.0,0.0,0.0,0.0,0.0,0.0,0.0,0.0,0.0
1716886405669564496,89796,1716886405668554770,imu_link,0.0076699746981,-0.00503503873079,0.987503952998,0.157326929312,0.0,0.0,0.0,0.0,0.0,0.0,0.0,0.0,0.0,-0.000208707198501,-0.00101591286984,-4.92579095214e-05,0.0,0.0,0.0,0.0,0.0,0.0,0.0,0.0,0.0,0.00704918659375,0.00097697965625,9.81039667096,0.0,0.0,0.0,0.0,0.0,0.0,0.0,0.0,0.0
1716886405834172738,89797,1716886405833555193,imu_link,-0.00587474208747,0.00428480883954,0.987518310271,0.157336310809,0.0,0.0,0.0,0.0,0.0,0.0,0.0,0.0,0.0,-0.000208707198501,-0.00101591286984,-4.92579095214e-05,0.0,0.0,0.0,0.0,0.0,0.0,0.0,0.0,0.0,0.00717125690625,0.000671803875,9.80996942487,0.0,0.0,0.0,0.0,0.0,0.0,0.0,0.0,0.0
1716886406000416810,89798,1716886405999557184,imu_link,0.00790306923706,-0.00515935870215,0.987493435593,0.157377371864,0.0,0.0,0.0,0.0,0.0,0.0,0.0,0.0,0.0,-0.000740819864907,-0.00101591286984,-0.00058137051772,0.0,0.0,0.0,0.0,0.0,0.0,0.0,0.0,0.0,0.00741539753125,0.0012821554375,9.81057977643,0.0,0.0,0.0,0.0,0.0,0.0,0.0,0.0,0.0
1716886406165234823,89799,1716886406164538635,imu_link,-0.00563057586804,0.00412712550888,0.987512090258,0.157388484474,0.0,0.0,0.0,0.0,0.0,0.0,0.0,0.0,0.0,-0.000740819864907,-0.00101591286984,-4.92579095214e-05,0.0,0.0,0.0,0.0,0.0,0.0,0.0,0.0,0.0,0.00704918659375,0.00158733121875,9.81057977643,0.0,0.0,0.0,0.0,0.0,0.0,0.0,0.0,0.0
1716886406330177118,89800,1716886406329536903,imu_link,0.00808376037882,-0.0052452040674,0.987483305198,0.157428912872,0.0,0.0,0.0,0.0,0.0,0.0,0.0,0.0,0.0,-0.000208707198501,-0.00101591286984,-0.00058137051772,0.0,0.0,0.0,0.0,0.0,0.0,0.0,0.0,0.0,0.00704918659375,0.00146526090625,9.81021356549,0.0,0.0,0.0,0.0,0.0,0.0,0.0,0.0,0.0
1716886406495210612,89801,1716886406494557164,imu_link,-0.00553415344582,0.00401971802301,0.987504871499,0.157439968808,0.0,0.0,0.0,0.0,0.0,0.0,0.0,0.0,0.0,-0.000208707198501,-0.000483800203432,-4.92579095214e-05,0.0,0.0,0.0,0.0,0.0,0.0,0.0,0.0,0.0,0.00717125690625,0.001160085125,9.8103356358,0.0,0.0,0.0,0.0,0.0,0.0,0.0,0.0,0.0
1716886406662534156,89802,1716886406661544057,imu_link,0.00829805788267,-0.00546309640291,0.987479073336,0.157436896998,0.0,0.0,0.0,0.0,0.0,0.0,0.0,0.0,0.0,-0.000208707198501,-0.000483800203432,-4.92579095214e-05,0.0,0.0,0.0,0.0,0.0,0.0,0.0,0.0,0.0,0.00704918659375,0.000671803875,9.81039667096,0.0,0.0,0.0,0.0,0.0,0.0,0.0,0.0,0.0
1716886406828267540,89803,1716886406826567926,imu_link,-0.00532885611789,0.00370036100482,0.987513108408,0.157403212618,0.0,0.0,0.0,0.0,0.0,0.0,0.0,0.0,0.0,-0.000208707198501,-0.00101591286984,0.000482854698677,0.0,0.0,0.0,0.0,0.0,0.0,0.0,0.0,0.0,0.001739128,0.0010380148125,9.81045770612,0.0,0.0,0.0,0.0,0.0,0.0,0.0,0.0,0.0
1716886406992427511,89804,1716886406991557990,imu_link,0.00492915898669,-0.00865213745943,0.983764871305,0.179185719006,0.0,0.0,0.0,0.0,0.0,0.0,0.0,0.0,0.0,-0.00180504496489,0.00909422639489,-0.267701888715,0.0,0.0,0.0,0.0,0.0,0.0,0.0,0.0,0.0,-0.0539249345,0.0067753195,9.80948114362,0.0,0.0,0.0,0.0,0.0,0.0,0.0,0.0,0.0
1716886407159799475,89805,1716886407157562590,imu_link,-0.00133938253464,0.00642624981454,0.978830309778,0.204568164749,0.0,0.0,0.0,0.0,0.0,0.0,0.0,0.0,0.0,-0.00340138284769,-0.00154802541983,-0.311335111295,0.0,0.0,0.0,0.0,0.0,0.0,0.0,0.0,0.0,0.0220638350312,0.00585979215625,9.81125116315,0.0,0.0,0.0,0.0,0.0,0.0,0.0,0.0,0.0
1716886407323223381,89806,1716886407322571096,imu_link,0.00217966458129,-0.00926343395703,0.974200419229,0.225483881969,0.0,0.0,0.0,0.0,0.0,0.0,0.0,0.0,0.0,0.00404819355067,0.00324098787933,-0.259720200931,0.0,0.0,0.0,0.0,0.0,0.0,0.0,0.0,0.0,0.00155602253125,0.00573772184375,9.8122887608,0.0,0.0,0.0,0.0,0.0,0.0,0.0,0.0,0.0
1716886407489466229,89807,1716886407488551879,imu_link,-0.00110284973492,0.00757603296962,0.968835623482,0.247586191292,0.0,0.0,0.0,0.0,0.0,0.0,0.0,0.0,0.0,0.00724086908344,4.83123465589e-05,-0.274087244903,0.0,0.0,0.0,0.0,0.0,0.0,0.0,0.0,0.0,0.00192223346875,0.00073283903125,9.81003046002,0.0,0.0,0.0,0.0,0.0,0.0,0.0,0.0,0.0
1716886407654298458,89808,1716886407653565271,imu_link,0.00169892677854,-0.0084511048382,0.963186415381,0.268696151258,0.0,0.0,0.0,0.0,0.0,0.0,0.0,0.0,0.0,-0.000208707198501,0.00696577619493,-0.265041316187,0.0,0.0,0.0,0.0,0.0,0.0,0.0,0.0,0.0,0.0084529951875,0.0067753195,9.81045770612,0.0,0.0,0.0,0.0,0.0,0.0,0.0,0.0,0.0
1716886407820284323,89809,1716886407818539717,imu_link,-0.000933651286818,0.0079876511387,0.956780358268,0.290700312619,0.0,0.0,0.0,0.0,0.0,0.0,0.0,0.0,0.0,0.00138763056789,0.000580424896549,-0.277812028562,0.0,0.0,0.0,0.0,0.0,0.0,0.0,0.0,0.0,0.0013729170625,0.0078739523125,9.81119012799,0.0,0.0,0.0,0.0,0.0,0.0,0.0,0.0,0.0
1716886407984366030,89810,1716886407983558931,imu_link,0.00150496511936,-0.00870053015182,0.949641491284,0.313214102311,0.0,0.0,0.0,0.0,0.0,0.0,0.0,0.0,0.0,-0.00340138284769,-0.00314436324442,-0.286325836813,0.0,0.0,0.0,0.0,0.0,0.0,0.0,0.0,0.0,0.00387535846875,0.00402873746875,9.80923700299,0.0,0.0,0.0,0.0,0.0,0.0,0.0,0.0,0.0
1716886408150293728,89811,1716886408148621782,imu_link,-0.000138306518235,0.00510921715317,0.941644695013,0.336569673508,0.0,0.0,0.0,0.0,0.0,0.0,0.0,0.0,0.0,-0.0278785610786,-0.0153829527673,-0.299096549188,0.0,0.0,0.0,0.0,0.0,0.0,0.0,0.0,0.0,0.0018611983125,0.007507741375,9.81064081159,0.0,0.0,0.0,0.0,0.0,0.0,0.0,0.0,0.0
1716886408315433441,89812,1716886408313521791,imu_link,0.000903897893303,-0.0110192932293,0.933676243594,0.357947524497,0.0,0.0,0.0,0.0,0.0,0.0,0.0,0.0,0.0,0.00564453143347,-0.00261225063622,-0.276747817432,0.0,0.0,0.0,0.0,0.0,0.0,0.0,0.0,0.0,0.00546227253125,-0.007628977375,9.80948114362,0.0,0.0,0.0,0.0,0.0,0.0,0.0,0.0,0.0
1716886408479089197,89813,1716886408478514448,imu_link,0.000426226790006,0.0058601336205,0.925248699023,0.379315596992,0.0,0.0,0.0,0.0,0.0,0.0,0.0,0.0,0.0,0.00351608100068,0.00270887532934,-0.278344149029,0.0,0.0,0.0,0.0,0.0,0.0,0.0,0.0,0.0,0.008819206125,0.00354045621875,9.81039667096,0.0,0.0,0.0,0.0,0.0,0.0,0.0,0.0,0.0
1716886408645316178,89814,1716886408643545391,imu_link,-0.00140322776556,-0.0104622148083,0.91648961402,0.399919192345,0.0,0.0,0.0,0.0,0.0,0.0,0.0,0.0,0.0,-0.00180504496489,0.00909422639489,-0.271426672374,0.0,0.0,0.0,0.0,0.0,0.0,0.0,0.0,0.0,0.00241051471875,-0.0016475320625,9.81070184674,0.0,0.0,0.0,0.0,0.0,0.0,0.0,0.0,0.0
1716886408810221236,89815,1716886408808556698,imu_link,0.00148086623651,0.00611171444677,0.907058424391,0.42095779922,0.0,0.0,0.0,0.0,0.0,0.0,0.0,0.0,0.0,0.00351608100068,0.00111253744654,-0.279408360159,0.0,0.0,0.0,0.0,0.0,0.0,0.0,0.0,0.0,0.00448571003125,0.00366252653125,9.81070184674,0.0,0.0,0.0,0.0,0.0,0.0,0.0,0.0,0.0
1716886408974144900,89816,1716886408973538505,imu_link,-0.00213918535297,-0.00991179710429,0.897475298382,0.440948147698,0.0,0.0,0.0,0.0,0.0,0.0,0.0,0.0,0.0,0.00138763056789,-0.00261225063622,-0.268766129648,0.0,0.0,0.0,0.0,0.0,0.0,0.0,0.0,0.0,0.00180016315625,-0.002746164875,9.81009149518,0.0,0.0,0.0,0.0,0.0,0.0,0.0,0.0,0.0
1716886409139138828,89817,1716886409138532868,imu_link,0.00244616847672,0.00529485051085,0.887444891738,0.460876930369,0.0,0.0,0.0,0.0,0.0,0.0,0.0,0.0,0.0,-0.00712617116328,-0.00367647585262,-0.270362461244,0.0,0.0,0.0,0.0,0.0,0.0,0.0,0.0,0.0,0.0108333662812,0.000671803875,9.8097863194,0.0,0.0,0.0,0.0,0.0,0.0,0.0,0.0,0.0
1716886409304248169,89818,1716886409303548428,imu_link,-0.0041871002109,-0.0104300261613,0.875828016336,0.482492454394,0.0,0.0,0.0,0.0,0.0,0.0,0.0,0.0,0.0,-0.00659405814763,-0.00208013802803,-0.29750018779,0.0,0.0,0.0,0.0,0.0,0.0,0.0,0.0,0.0,0.00375328815625,0.00244182340625,9.81137323346,0.0,0.0,0.0,0.0,0.0,0.0,0.0,0.0,0.0
1716886409469332602,89819,1716886409468678984,imu_link,0.00246950233274,0.00446806501287,0.864399026756,0.502780529154,0.0,0.0,0.0,0.0,0.0,0.0,0.0,0.0,0.0,-0.00233715751488,-0.00367647585262,-0.282068932688,0.0,0.0,0.0,0.0,0.0,0.0,0.0,0.0,0.0,0.00125084675,-0.0006709695625,9.80948114362,0.0,0.0,0.0,0.0,0.0,0.0,0.0,0.0,0.0
1716886409635586540,89820,1716886409633560698,imu_link,-0.00505840851498,-0.0105415411643,0.852523975023,0.522557327404,0.0,0.0,0.0,0.0,0.0,0.0,0.0,0.0,0.0,-0.00393349539768,0.00324098787933,-0.279940480625,0.0,0.0,0.0,0.0,0.0,0.0,0.0,0.0,0.0,0.0067440108125,-0.003234446125,9.80874872174,0.0,0.0,0.0,0.0,0.0,0.0,0.0,0.0,0.0
1716886409800300852,89821,1716886409798572921,imu_link,0.0026875040186,0.00444085189876,0.840270386649,0.542142724269,0.0,0.0,0.0,0.0,0.0,0.0,0.0,0.0,0.0,0.00404819355067,0.00270887532934,-0.279940480625,0.0,0.0,0.0,0.0,0.0,0.0,0.0,0.0,0.0,0.005645378,0.00244182340625,9.81155633893,0.0,0.0,0.0,0.0,0.0,0.0,0.0,0.0,0.0
1716886409966341730,89822,1716886409964538571,imu_link,-0.00556284822421,-0.00956709081319,0.827686776948,0.561081210485,0.0,0.0,0.0,0.0,0.0,0.0,0.0,0.0,0.0,0.00404819355067,0.00217676277935,-0.274087244903,0.0,0.0,0.0,0.0,0.0,0.0,0.0,0.0,0.0,0.0030819014375,-0.0021358133125,9.81015253034,0.0,0.0,0.0,0.0,0.0,0.0,0.0,0.0,0.0
1716886410131442336,89823,1716886410129576346,imu_link,0.00321363697106,0.00467874308243,0.81474528762,0.579791253989,0.0,0.0,0.0,0.0,0.0,0.0,0.0,0.0,0.0,0.00245185578428,4.83123465589e-05,-0.2756835765,0.0,0.0,0.0,0.0,0.0,0.0,0.0,0.0,0.0,0.00204430378125,0.00195354215625,9.81216669049,0.0,0.0,0.0,0.0,0.0,0.0,0.0,0.0,0.0
1716886410295257259,89824,1716886410294548866,imu_link,-0.00572648032472,-0.00945290434883,0.801346976796,0.598097711751,0.0,0.0,0.0,0.0,0.0,0.0,0.0,0.0,0.0,-0.0028692702977,0.00324098787933,-0.275151456033,0.0,0.0,0.0,0.0,0.0,0.0,0.0,0.0,0.0,0.00704918659375,-0.0011592508125,9.80917596784,0.0,0.0,0.0,0.0,0.0,0.0,0.0,0.0,0.0
1716886410460405456,89825,1716886410459510951,imu_link,0.00477566309272,0.0045216594502,0.787010102095,0.616905054962,0.0,0.0,0.0,0.0,0.0,0.0,0.0,0.0,0.0,0.012029882499,-0.0132545025674,-0.286857957279,0.0,0.0,0.0,0.0,0.0,0.0,0.0,0.0,0.0,0.003448112375,0.0056766866875,9.8078331944,0.0,0.0,0.0,0.0,0.0,0.0,0.0,0.0,0.0
1716886410625101051,89826,1716886410624519453,imu_link,-0.00658799867523,-0.00715282395507,0.772367616598,0.635101330666,0.0,0.0,0.0,0.0,0.0,0.0,0.0,0.0,0.0,0.00191974317608,-0.00474070106902,-0.283133143818,0.0,0.0,0.0,0.0,0.0,0.0,0.0,0.0,0.0,0.0038143233125,0.0020145773125,9.80990838971,0.0,0.0,0.0,0.0,0.0,0.0,0.0,0.0,0.0
1716886410790194888,89827,1716886410789553990,imu_link,0.0050595200559,0.0046426481377,0.757420895137,0.652890829071,0.0,0.0,0.0,0.0,0.0,0.0,0.0,0.0,0.0,0.000855517959688,0.00111253744654,-0.281536812221,0.0,0.0,0.0,0.0,0.0,0.0,0.0,0.0,0.0,0.004912956125,-0.00292927034375,9.8117394444,0.0,0.0,0.0,0.0,0.0,0.0,0.0,0.0,0.0
1716886410955498793,89828,1716886410954555326,imu_link,-0.00660978184915,-0.00664385238676,0.742275027014,0.670029815964,0.0,0.0,0.0,0.0,0.0,0.0,0.0,0.0,0.0,0.00298396833427,-0.00314436324442,-0.277279908096,0.0,0.0,0.0,0.0,0.0,0.0,0.0,0.0,0.0,0.00314293659375,0.00256389371875,9.80990838971,0.0,0.0,0.0,0.0,0.0,0.0,0.0,0.0,0.0
1716886411120136128,89829,1716886411119586155,imu_link,0.00544535438956,0.00473747704164,0.726460503675,0.687170314425,0.0,0.0,0.0,0.0,0.0,0.0,0.0,0.0,0.0,0.000855517959688,0.00111253744654,-0.282601053154,0.0,0.0,0.0,0.0,0.0,0.0,0.0,0.0,0.0,0.0045467451875,0.00195354215625,9.81204462018,0.0,0.0,0.0,0.0,0.0,0.0,0.0,0.0,0.0
1716886411285504798,89830,1716886411284542308,imu_link,-0.00655862734351,-0.00718189652759,0.710052843106,0.704081220291,0.0,0.0,0.0,0.0,0.0,0.0,0.0,0.0,0.0,-0.00499772049766,-0.00208013802803,-0.285793716346,0.0,0.0,0.0,0.0,0.0,0.0,0.0,0.0,0.0,0.00912438190625,-0.00146442659375,9.81045770612,0.0,0.0,0.0,0.0,0.0,0.0,0.0,0.0,0.0
1716886411450192525,89831,1716886411449554339,imu_link,0.00505644468977,0.00422096916106,0.693144256083,0.720768795139,0.0,0.0,0.0,0.0,0.0,0.0,0.0,0.0,0.0,-0.0028692702977,-0.00208013802803,-0.287922168409,0.0,0.0,0.0,0.0,0.0,0.0,0.0,0.0,0.0,0.00570641315625,-0.00036579378125,9.81082391705,0.0,0.0,0.0,0.0,0.0,0.0,0.0,0.0,0.0
1716886411615375382,89832,1716886411614563445,imu_link,-0.00700116170289,-0.00743242032351,0.675813345955,0.737002078892,0.0,0.0,0.0,0.0,0.0,0.0,0.0,0.0,0.0,-0.00340138284769,-0.00314436324442,-0.287922168409,0.0,0.0,0.0,0.0,0.0,0.0,0.0,0.0,0.0,0.0085750655,0.0020145773125,9.81222772565,0.0,0.0,0.0,0.0,0.0,0.0,0.0,0.0,0.0
1716886411781421930,89833,1716886411779559096,imu_link,0.00523059560029,0.00407742659154,0.657839654162,0.75312881028,0.0,0.0,0.0,0.0,0.0,0.0,0.0,0.0,0.0,0.00351608100068,-0.00314436324442,-0.292711193001,0.0,0.0,0.0,0.0,0.0,0.0,0.0,0.0,0.0,0.0057674483125,0.00256389371875,9.81387567487,0.0,0.0,0.0,0.0,0.0,0.0,0.0,0.0,0.0
1716886411945173774,89834,1716886411944552236,imu_link,-0.00744846107841,-0.00609744035111,0.640363095444,0.76801201009,0.0,0.0,0.0,0.0,0.0,0.0,0.0,0.0,0.0,0.00298396833427,0.00164465022936,-0.278344149029,0.0,0.0,0.0,0.0,0.0,0.0,0.0,0.0,0.0,0.00418053425,0.00024455778125,9.80972528424,0.0,0.0,0.0,0.0,0.0,0.0,0.0,0.0,0.0
1716886412111211667,89835,1716886412109597362,imu_link,0.00561366842392,0.004719931387,0.622797980201,0.782348314264,0.0,0.0,0.0,0.0,0.0,0.0,0.0,0.0,0.0,0.00564453143347,0.00962633941054,-0.27461936537,0.0,0.0,0.0,0.0,0.0,0.0,0.0,0.0,0.0,0.0055233076875,4.1715625e-07,9.80942010846,0.0,0.0,0.0,0.0,0.0,0.0,0.0,0.0,0.0
1716886412276194077,89836,1716886412274552698,imu_link,-0.00680968910877,-0.00512786922227,0.604990373277,0.796187152203,0.0,0.0,0.0,0.0,0.0,0.0,0.0,0.0,0.0,0.00777298163343,0.00803000129491,-0.273555124437,0.0,0.0,0.0,0.0,0.0,0.0,0.0,0.0,0.0,0.00320397175,-0.00280720003125,9.8103356358,0.0,0.0,0.0,0.0,0.0,0.0,0.0,0.0,0.0
1716886412440223582,89837,1716886412439567478,imu_link,0.00612058554733,0.00528600369452,0.587435752808,0.80923039545,0.0,0.0,0.0,0.0,0.0,0.0,0.0,0.0,0.0,0.000855517959688,0.00696577619493,-0.265041316187,0.0,0.0,0.0,0.0,0.0,0.0,0.0,0.0,0.0,-0.0015567704375,0.00415080778125,9.81167840924,0.0,0.0,0.0,0.0,0.0,0.0,0.0,0.0,0.0
1716886412605191594,89838,1716886412604564090,imu_link,-0.00543904307322,-0.0059320409634,0.569169639085,0.822180728091,0.0,0.0,0.0,0.0,0.0,0.0,0.0,0.0,0.0,0.00564453143347,-0.00686915150181,-0.271426672374,0.0,0.0,0.0,0.0,0.0,0.0,0.0,0.0,0.0,0.0045467451875,0.00335735075,9.81137323346,0.0,0.0,0.0,0.0,0.0,0.0,0.0,0.0,0.0
1716886412771547555,89839,1716886412769641775,imu_link,0.00597366359666,0.00550146614341,0.549872599082,0.835209060052,0.0,0.0,0.0,0.0,0.0,0.0,0.0,0.0,0.0,-0.00446560794767,-0.00101591286984,-0.282068932688,0.0,0.0,0.0,0.0,0.0,0.0,0.0,0.0,0.0,0.0043026045625,0.00268596403125,9.80911493268,0.0,0.0,0.0,0.0,0.0,0.0,0.0,0.0,0.0
1716886412936438831,89840,1716886412934557029,imu_link,-0.00596633125628,-0.00611740561708,0.529331170586,0.848372260323,0.0,0.0,0.0,0.0,0.0,0.0,0.0,0.0,0.0,-0.0012729324149,-0.00474070106902,-0.295903856193,0.0,0.0,0.0,0.0,0.0,0.0,0.0,0.0,0.0,0.0016170576875,0.00659221403125,9.80960321393,0.0,0.0,0.0,0.0,0.0,0.0,0.0,0.0,0.0
1716886413100171683,89841,1716886413099552646,imu_link,0.00594180761472,0.00538601486668,0.507673365801,0.861512297894,0.0,0.0,0.0,0.0,0.0,0.0,0.0,0.0,0.0,0.000323405351489,4.83123465589e-05,-0.307078236973,0.0,0.0,0.0,0.0,0.0,0.0,0.0,0.0,0.0,0.00320397175,-0.00158649690625,9.80874872174,0.0,0.0,0.0,0.0,0.0,0.0,0.0,0.0,0.0
1716886413266297416,89842,1716886413264590741,imu_link,-0.00592551709896,-0.00514116359884,0.487643150086,0.873007797708,0.0,0.0,0.0,0.0,0.0,0.0,0.0,0.0,0.0,0.00724086908344,0.00430521297931,-0.279940480625,0.0,0.0,0.0,0.0,0.0,0.0,0.0,0.0,0.0,0.0027156905,-0.0016475320625,9.80984735455,0.0,0.0,0.0,0.0,0.0,0.0,0.0,0.0,0.0
1716886413431188375,89843,1716886413429556787,imu_link,0.00767942065527,0.00609017175291,0.467620446122,0.88387502209,0.0,0.0,0.0,0.0,0.0,0.0,0.0,0.0,0.0,0.0136262206146,0.00217676277935,-0.276215696966,0.0,0.0,0.0,0.0,0.0,0.0,0.0,0.0,0.0,0.001494987375,0.00207561246875,9.8103356358,0.0,0.0,0.0,0.0,0.0,0.0,0.0,0.0,0.0
1716886413596335844,89844,1716886413594528131,imu_link,-0.00506345051465,-0.003700688212,0.447493315471,0.894265284457,0.0,0.0,0.0,0.0,0.0,0.0,0.0,0.0,0.0,0.00511241865065,0.00111253744654,-0.27461936537,0.0,0.0,0.0,0.0,0.0,0.0,0.0,0.0,0.0,-0.00039710246875,0.00140422575,9.80905389752,0.0,0.0,0.0,0.0,0.0,0.0,0.0,0.0,0.0
1716886413760375730,89845,1716886413759551818,imu_link,0.00831009281178,0.00525696926665,0.42726074344,0.904074976839,0.0,0.0,0.0,0.0,0.0,0.0,0.0,0.0,0.0,-0.00499772049766,4.83123465589e-05,-0.272490913307,0.0,0.0,0.0,0.0,0.0,0.0,0.0,0.0,0.0,0.00418053425,0.001892507,9.81119012799,0.0,0.0,0.0,0.0,0.0,0.0,0.0,0.0,0.0
1716886413926608606,89846,1716886413924534721,imu_link,-0.00534240844848,-0.00341008288973,0.405562778754,0.914045219065,0.0,0.0,0.0,0.0,0.0,0.0,0.0,0.0,0.0,0.00404819355067,4.83123465589e-05,-0.289518500005,0.0,0.0,0.0,0.0,0.0,0.0,0.0,0.0,0.0,0.00167809284375,0.00695842496875,9.8103356358,0.0,0.0,0.0,0.0,0.0,0.0,0.0,0.0,0.0
1716886414091288562,89847,1716886414089561148,imu_link,0.00895995923722,0.00471467220004,0.383810002972,0.923356579343,0.0,0.0,0.0,0.0,0.0,0.0,0.0,0.0,0.0,0.000323405351489,-0.00846548915178,-0.286857957279,0.0,0.0,0.0,0.0,0.0,0.0,0.0,0.0,0.0,-0.0008243485625,0.005554616375,9.80819940534,0.0,0.0,0.0,0.0,0.0,0.0,0.0,0.0,0.0
1716886414256393326,89848,1716886414254564354,imu_link,-0.0047752141016,-0.00298811933798,0.361376044768,0.932403143893,0.0,0.0,0.0,0.0,0.0,0.0,0.0,0.0,0.0,0.0093693192834,-0.00208013802803,-0.293243283664,0.0,0.0,0.0,0.0,0.0,0.0,0.0,0.0,0.0,0.00534020221875,-0.001769602375,9.80905389752,0.0,0.0,0.0,0.0,0.0,0.0,0.0,0.0,0.0
1716886414420495663,89849,1716886414419553329,imu_link,0.00939988359923,0.00578227166977,0.339815876361,0.940427231473,0.0,0.0,0.0,0.0,0.0,0.0,0.0,0.0,0.0,0.00138763056789,0.00324098787933,-0.278876269495,0.0,0.0,0.0,0.0,0.0,0.0,0.0,0.0,0.0,0.000518424875,0.00451701871875,9.8103356358,0.0,0.0,0.0,0.0,0.0,0.0,0.0,0.0,0.0
1716886414585509809,89850,1716886414584552269,imu_link,-0.00430204628708,-0.00265724487288,0.317775515712,0.948152494624,0.0,0.0,0.0,0.0,0.0,0.0,0.0,0.0,0.0,0.00511241865065,0.000580424896549,-0.283133143818,0.0,0.0,0.0,0.0,0.0,0.0,0.0,0.0,0.0,0.0023494795625,0.00317424528125,9.8103356358,0.0,0.0,0.0,0.0,0.0,0.0,0.0,0.0,0.0
1716886414751290060,89851,1716886414749611532,imu_link,0.00975133972339,0.0061481568371,0.296107782768,0.955084966129,0.0,0.0,0.0,0.0,0.0,0.0,0.0,0.0,0.0,0.000323405351489,0.00270887532934,-0.2756835765,0.0,0.0,0.0,0.0,0.0,0.0,0.0,0.0,0.0,-0.00051917278125,0.00195354215625,9.80789422955,0.0,0.0,0.0,0.0,0.0,0.0,0.0,0.0,0.0
1716886414915222547,89852,1716886414914527139,imu_link,-0.00389042251225,-0.00199368544918,0.273791680166,0.961779083627,0.0,0.0,0.0,0.0,0.0,0.0,0.0,0.0,0.0,0.00670875653345,0.00430521297931,-0.282601053154,0.0,0.0,0.0,0.0,0.0,0.0,0.0,0.0,0.0,0.0003963545625,0.00268596403125,9.81112909284,0.0,0.0,0.0,0.0,0.0,0.0,0.0,0.0,0.0
1716886415081278131,89853,1716886415079552367,imu_link,0.0117657337726,0.00442109616852,0.251191589261,0.967855777945,0.0,0.0,0.0,0.0,0.0,0.0,0.0,0.0,0.0,0.00564453143347,-0.005804926169,-0.283665264284,0.0,0.0,0.0,0.0,0.0,0.0,0.0,0.0,0.0,0.00320397175,0.0054325460625,9.80752801862,0.0,0.0,0.0,0.0,0.0,0.0,0.0,0.0,0.0
1716886415246305536,89854,1716886415244584356,imu_link,-0.00359500014472,-0.00130548873015,0.227324489234,0.973811556857,0.0,0.0,0.0,0.0,0.0,0.0,0.0,0.0,0.0,0.00191974317608,-0.00527281361901,-0.298032308256,0.0,0.0,0.0,0.0,0.0,0.0,0.0,0.0,0.0,-0.00369300090625,0.0101322530937,9.81106805768,0.0,0.0,0.0,0.0,0.0,0.0,0.0,0.0,0.0
1716886415410477255,89855,1716886415409574352,imu_link,0.0117348335481,0.00380164326599,0.202915700253,0.979118511612,0.0,0.0,0.0,0.0,0.0,0.0,0.0,0.0,0.0,-0.00446560794767,0.00217676277935,-0.302821332847,0.0,0.0,0.0,0.0,0.0,0.0,0.0,0.0,0.0,0.00222740925,0.00366252653125,9.80893182721,0.0,0.0,0.0,0.0,0.0,0.0,0.0,0.0,0.0
1716886415575473937,89856,1716886415574576610,imu_link,-0.00337307869996,-0.000903503275619,0.179613365091,0.983731083733,0.0,0.0,0.0,0.0,0.0,0.0,0.0,0.0,0.0,0.00830509418342,-0.000483800203432,-0.287922168409,0.0,0.0,0.0,0.0,0.0,0.0,0.0,0.0,0.0,-3.089153125e-05,0.00012248746875,9.80984735455,0.0,0.0,0.0,0.0,0.0,0.0,0.0,0.0,0.0
1716886415740144804,89857,1716886415739570091,imu_link,0.0132449364124,0.00270962120972,0.15744306238,0.987435522817,0.0,0.0,0.0,0.0,0.0,0.0,0.0,0.0,0.0,0.00617664398346,-0.000483800203432,-0.272490913307,0.0,0.0,0.0,0.0,0.0,0.0,0.0,0.0,0.0,0.00241051471875,0.0067753195,9.80899286237,0.0,0.0,0.0,0.0,0.0,0.0,0.0,0.0,0.0
1716886415905150558,89858,1716886415904547578,imu_link,-0.00245033740324,-0.00012638538441,0.135436662239,0.990782968361,0.0,0.0,0.0,0.0,0.0,0.0,0.0,0.0,0.0,0.00670875653345,4.83123465589e-05,-0.269830340778,0.0,0.0,0.0,0.0,0.0,0.0,0.0,0.0,0.0,-0.00173987590625,0.00915569059375,9.80905389752,0.0,0.0,0.0,0.0,0.0,0.0,0.0,0.0,0.0
1716886416070357755,89859,1716886416069645620,imu_link,0.0143396738918,0.00120552973789,0.112979511143,0.993493105418,0.0,0.0,0.0,0.0,0.0,0.0,0.0,0.0,0.0,0.00404819355067,4.83123465589e-05,-0.274087244903,0.0,0.0,0.0,0.0,0.0,0.0,0.0,0.0,0.0,-0.00125159465625,0.003113210125,9.80954217877,0.0,0.0,0.0,0.0,0.0,0.0,0.0,0.0,0.0
1716886416235224898,89860,1716886416234558465,imu_link,-0.00254418350812,-0.000373926453308,0.0900681966174,0.995932280463,0.0,0.0,0.0,0.0,0.0,0.0,0.0,0.0,0.0,-0.00552983304765,-0.00367647585262,-0.279408360159,0.0,0.0,0.0,0.0,0.0,0.0,0.0,0.0,0.0,0.00314293659375,0.00878947965625,9.8107628819,0.0,0.0,0.0,0.0,0.0,0.0,0.0,0.0,0.0
1716886416400431714,89861,1716886416399535759,imu_link,0.0135009332946,0.00201969316376,0.0653391281383,0.997769734946,0.0,0.0,0.0,0.0,0.0,0.0,0.0,0.0,0.0,-0.00340138284769,-0.00154802541983,-0.300692880785,0.0,0.0,0.0,0.0,0.0,0.0,0.0,0.0,0.0,-0.00100745403125,0.00531047575,9.81216669049,0.0,0.0,0.0,0.0,0.0,0.0,0.0,0.0,0.0
1716886416565209408,89862,1716886416564564164,imu_link,-0.00253327786531,-0.000265160370665,0.0410472657144,0.999153959193,0.0,0.0,0.0,0.0,0.0,0.0,0.0,0.0,0.0,0.00404819355067,-0.00261225063622,-0.294839645063,0.0,0.0,0.0,0.0,0.0,0.0,0.0,0.0,0.0,-0.00070227825,0.00402873746875,9.80850458112,0.0,0.0,0.0,0.0,0.0,0.0,0.0,0.0,0.0
1716886416732203630,89863,1716886416730548561,imu_link,0.0150104563438,0.000692507655708,0.0176478331909,0.999731344221,0.0,0.0,0.0,0.0,0.0,0.0,0.0,0.0,0.0,0.0114977694834,0.000580424896549,-0.282068932688,0.0,0.0,0.0,0.0,0.0,0.0,0.0,0.0,0.0,0.0023494795625,0.0037235616875,9.81015253034,0.0,0.0,0.0,0.0,0.0,0.0,0.0,0.0,0.0
1716886416897322610,89864,1716886416895580431,imu_link,-0.00110410713204,0.000674538171254,-0.00474507335412,0.999987905039,0.0,0.0,0.0,0.0,0.0,0.0,0.0,0.0,0.0,0.00511241865065,0.00377310042932,-0.271426672374,0.0,0.0,0.0,0.0,0.0,0.0,0.0,0.0,0.0,-0.0018009110625,0.00952190153125,9.81009149518,0.0,0.0,0.0,0.0,0.0,0.0,0.0,0.0,0.0
1716886417062235895,89865,1716886417060597234,imu_link,0.014422244078,-0.00434561464163,-0.0288811854016,0.999469355027,0.0,0.0,0.0,0.0,0.0,0.0,0.0,0.0,0.0,0.000323405351489,0.00749788827926,-0.292711193001,0.0,0.0,0.0,0.0,0.0,0.0,0.0,0.0,0.0,-0.0030216141875,0.00659221403125,9.81015253034,0.0,0.0,0.0,0.0,0.0,0.0,0.0,0.0,0.0
1716886417226418033,89866,1716886417225519144,imu_link,-0.000698388950056,0.000872457228209,-0.0497169963263,0.998762720243,0.0,0.0,0.0,0.0,0.0,0.0,0.0,0.0,0.0,0.00670875653345,4.83123465589e-05,-0.25280275408,0.0,0.0,0.0,0.0,0.0,0.0,0.0,0.0,0.0,-0.00064124309375,0.00903362028125,9.81045770612,0.0,0.0,0.0,0.0,0.0,0.0,0.0,0.0,0.0
1716886417391264916,89867,1716886417390647855,imu_link,0.0114475855671,-0.0103739608389,-0.0728145794849,0.997225837379,0.0,0.0,0.0,0.0,0.0,0.0,0.0,0.0,0.0,-0.000740819864907,-0.00154802541983,-0.280472601091,0.0,0.0,0.0,0.0,0.0,0.0,0.0,0.0,0.0,0.001494987375,0.00726360075,9.81234979596,0.0,0.0,0.0,0.0,0.0,0.0,0.0,0.0,0.0
1716886417556454124,89868,1716886417555544689,imu_link,-0.000406899941413,0.00103570904644,-0.0977998859567,0.995205478304,0.0,0.0,0.0,0.0,0.0,0.0,0.0,0.0,0.0,-0.00233715751488,-0.00367647585262,-0.303885543977,0.0,0.0,0.0,0.0,0.0,0.0,0.0,0.0,0.0,-0.00418128215625,0.00830119840625,9.80929803815,0.0,0.0,0.0,0.0,0.0,0.0,0.0,0.0,0.0
1716886417721344768,89869,1716886417720532797,imu_link,0.010524661136,-0.0120343344313,-0.120469686579,0.992588263541,0.0,0.0,0.0,0.0,0.0,0.0,0.0,0.0,0.0,0.0093693192834,4.83123465589e-05,-0.276747817432,0.0,0.0,0.0,0.0,0.0,0.0,0.0,0.0,0.0,-0.0030216141875,0.00573772184375,9.80844354596,0.0,0.0,0.0,0.0,0.0,0.0,0.0,0.0,0.0
1716886417886177718,89870,1716886417885558368,imu_link,-0.000401684355833,0.00183619787226,-0.145390716355,0.989372531772,0.0,0.0,0.0,0.0,0.0,0.0,0.0,0.0,0.0,-0.0108509594789,0.00856211337924,-0.304417664444,0.0,0.0,0.0,0.0,0.0,0.0,0.0,0.0,0.0,-0.00601233684375,0.00952190153125,9.8117394444,0.0,0.0,0.0,0.0,0.0,0.0,0.0,0.0,0.0
1716886418054529377,89871,1716886418053558580,imu_link,0.00655681428058,-0.0132705308375,-0.169290270347,0.985455075365,0.0,0.0,0.0,0.0,0.0,0.0,0.0,0.0,0.0,0.00138763056789,0.00324098787933,-0.288454288875,0.0,0.0,0.0,0.0,0.0,0.0,0.0,0.0,0.0,-0.006317512625,0.0048221945,9.81057977643,0.0,0.0,0.0,0.0,0.0,0.0,0.0,0.0,0.0
1716886418219182092,89872,1716886418218554763,imu_link,0.000354691562317,0.00176284145021,-0.191547584036,0.981481680743,0.0,0.0,0.0,0.0,0.0,0.0,0.0,0.0,0.0,0.00670875653345,0.000580424896549,-0.274087244903,0.0,0.0,0.0,0.0,0.0,0.0,0.0,0.0,0.0,-0.0049747391875,0.00268596403125,9.80777215924,0.0,0.0,0.0,0.0,0.0,0.0,0.0,0.0,0.0
1716886418385374840,89873,1716886418383558180,imu_link,-0.00211206434611,-0.0141782495543,-0.202589623657,0.979158802652,0.0,0.0,0.0,0.0,0.0,0.0,0.0,0.0,0.0,-0.00340138284769,0.00430521297931,-0.136802191173,0.0,0.0,0.0,0.0,0.0,0.0,0.0,0.0,0.0,0.0614315108125,0.0056766866875,9.80984735455,0.0,0.0,0.0,0.0,0.0,0.0,0.0,0.0,0.0
1716886418549428999,89874,1716886418548561499,imu_link,0.000449591977138,0.00208149130638,-0.201455549661,0.979495342905,0.0,0.0,0.0,0.0,0.0,0.0,0.0,0.0,0.0,-0.000208707198501,-0.000483800203432,0.0143177823372,0.0,0.0,0.0,0.0,0.0,0.0,0.0,0.0,0.0,-0.02218665325,0.00195354215625,9.81027460065,0.0,0.0,0.0,0.0,0.0,0.0,0.0,0.0,0.0
1716886418714292942,89875,1716886418713581890,imu_link,-0.00214698268741,-0.014311719666,-0.201651898316,0.979350334176,0.0,0.0,0.0,0.0,0.0,0.0,0.0,0.0,0.0,-0.000208707198501,-0.00101591286984,-0.0027098208923,0.0,0.0,0.0,0.0,0.0,0.0,0.0,0.0,0.0,-0.002411262625,0.0022587179375,9.80948114362,0.0,0.0,0.0,0.0,0.0,0.0,0.0,0.0,0.0
1716886418880255079,89876,1716886418878539954,imu_link,0.000426014503751,0.0019206054059,-0.201679156451,0.9794496657,0.0,0.0,0.0,0.0,0.0,0.0,0.0,0.0,0.0,-0.000208707198501,-0.00101591286984,-4.92579095214e-05,0.0,0.0,0.0,0.0,0.0,0.0,0.0,0.0,0.0,-0.00601233684375,0.00244182340625,9.8097863194,0.0,0.0,0.0,0.0,0.0,0.0,0.0,0.0,0.0
1716886419044414648,89877,1716886419043536516,imu_link,-0.00184184914925,-0.0145082191017,-0.201745292491,0.979328829417,0.0,0.0,0.0,0.0,0.0,0.0,0.0,0.0,0.0,-0.000208707198501,-0.00101591286984,-0.00111348312592,0.0,0.0,0.0,0.0,0.0,0.0,0.0,0.0,0.0,-0.00637854778125,0.0027469991875,9.80990838971,0.0,0.0,0.0,0.0,0.0,0.0,0.0,0.0,0.0
1716886419209506990,89878,1716886419208613704,imu_link,0.000399469710661,0.00182265974929,-0.20181648778,0.979421576031,0.0,0.0,0.0,0.0,0.0,0.0,0.0,0.0,0.0,-0.000208707198501,-0.000483800203432,-0.00058137051772,0.0,0.0,0.0,0.0,0.0,0.0,0.0,0.0,0.0,-0.0064395829375,0.00280803434375,9.81003046002,0.0,0.0,0.0,0.0,0.0,0.0,0.0,0.0,0.0
1716886419374272464,89879,1716886419373560655,imu_link,-0.00187793790951,-0.0145952077203,-0.20183952653,0.979308051019,0.0,0.0,0.0,0.0,0.0,0.0,0.0,0.0,0.0,-0.000208707198501,-0.00101591286984,-0.00058137051772,0.0,0.0,0.0,0.0,0.0,0.0,0.0,0.0,0.0,-0.00589026653125,0.0025028585625,9.80954217877,0.0,0.0,0.0,0.0,0.0,0.0,0.0,0.0,0.0
1716886419540273879,89880,1716886419538587602,imu_link,0.000368662946642,0.00168022467269,-0.201910926394,0.979402378359,0.0,0.0,0.0,0.0,0.0,0.0,0.0,0.0,0.0,-0.000208707198501,-0.00101591286984,-0.00058137051772,0.0,0.0,0.0,0.0,0.0,0.0,0.0,0.0,0.0,-0.00637854778125,0.002624928875,9.80996942487,0.0,0.0,0.0,0.0,0.0,0.0,0.0,0.0,0.0
1716886419704234798,89881,1716886419703559268,imu_link,-0.00169988950509,-0.0147432572258,-0.201890384887,0.979295675081,0.0,0.0,0.0,0.0,0.0,0.0,0.0,0.0,0.0,-0.000208707198501,-0.000483800203432,-4.92579095214e-05,0.0,0.0,0.0,0.0,0.0,0.0,0.0,0.0,0.0,-0.0059513016875,0.002624928875,9.81015253034,0.0,0.0,0.0,0.0,0.0,0.0,0.0,0.0,0.0
1716886419870148003,89882,1716886419868513848,imu_link,0.000420173934209,0.00157304210474,-0.201917840755,0.979401110157,0.0,0.0,0.0,0.0,0.0,0.0,0.0,0.0,0.0,0.000855517959688,-0.000483800203432,-4.92579095214e-05,0.0,0.0,0.0,0.0,0.0,0.0,0.0,0.0,0.0,-0.00564612590625,0.00256389371875,9.80972528424,0.0,0.0,0.0,0.0,0.0,0.0,0.0,0.0,0.0
1716886420035593274,89883,1716886420033560325,imu_link,-0.00232530338425,-0.0146629161407,-0.20194088305,0.979285184003,0.0,0.0,0.0,0.0,0.0,0.0,0.0,0.0,0.0,0.00191974317608,0.000580424896549,-0.00058137051772,0.0,0.0,0.0,0.0,0.0,0.0,0.0,0.0,0.0,-0.00625647746875,0.0025028585625,9.81027460065,0.0,0.0,0.0,0.0,0.0,0.0,0.0,0.0,0.0
1716886420200518970,89884,1716886420198549352,imu_link,0.000470541585545,0.00159834171405,-0.201969177968,0.979390460973,0.0,0.0,0.0,0.0,0.0,0.0,0.0,0.0,0.0,0.000323405351489,4.83123465589e-05,-4.92579095214e-05,0.0,0.0,0.0,0.0,0.0,0.0,0.0,0.0,0.0,-0.0071720048125,0.00305217496875,9.80996942487,0.0,0.0,0.0,0.0,0.0,0.0,0.0,0.0,0.0
1716886420365318431,89885,1716886420363520464,imu_link,-0.00251640567272,-0.014676062836,-0.201948176418,0.979283010638,0.0,0.0,0.0,0.0,0.0,0.0,0.0,0.0,0.0,-0.000208707198501,-0.000483800203432,-4.92579095214e-05,0.0,0.0,0.0,0.0,0.0,0.0,0.0,0.0,0.0,-0.0064395829375,0.00329631559375,9.80972528424,0.0,0.0,0.0,0.0,0.0,0.0,0.0,0.0,0.0
1716886420530256092,89886,1716886420528633230,imu_link,0.00037197265899,0.0015397661033,-0.201977671963,0.979388845549,0.0,0.0,0.0,0.0,0.0,0.0,0.0,0.0,0.0,-0.000740819864907,-0.000483800203432,-4.92579095214e-05,0.0,0.0,0.0,0.0,0.0,0.0,0.0,0.0,0.0,-0.007294075125,0.00280803434375,9.81003046002,0.0,0.0,0.0,0.0,0.0,0.0,0.0,0.0,0.0
1716886420694137655,89887,1716886420693527455,imu_link,-0.00158730787712,-0.0148757631305,-0.201999187236,0.979271423294,0.0,0.0,0.0,0.0,0.0,0.0,0.0,0.0,0.0,-0.000208707198501,-0.000483800203432,-0.00058137051772,0.0,0.0,0.0,0.0,0.0,0.0,0.0,0.0,0.0,-0.00759925090625,0.00305217496875,9.81003046002,0.0,0.0,0.0,0.0,0.0,0.0,0.0,0.0,0.0
1716886420859431351,89888,1716886420858548599,imu_link,0.000327170220753,0.00143046914129,-0.20207184276,0.979369601877,0.0,0.0,0.0,0.0,0.0,0.0,0.0,0.0,0.0,-0.000208707198501,-0.00101591286984,-0.00058137051772,0.0,0.0,0.0,0.0,0.0,0.0,0.0,0.0,0.0,-0.00625647746875,0.0029911398125,9.81015253034,0.0,0.0,0.0,0.0,0.0,0.0,0.0,0.0,0.0
1716886421027244384,89889,1716886421026548231,imu_link,-0.00145200765559,-0.0153723597731,-0.20209272784,0.979244663801,0.0,0.0,0.0,0.0,0.0,0.0,0.0,0.0,0.0,-0.000740819864907,-0.00101591286984,-0.00058137051772,0.0,0.0,0.0,0.0,0.0,0.0,0.0,0.0,0.0,-0.0066837235625,0.0028690695,9.81003046002,0.0,0.0,0.0,0.0,0.0,0.0,0.0,0.0,0.0
1716886421193293764,89890,1716886421191555498,imu_link,0.000191893009646,0.000970670993694,-0.202167323984,0.979350496037,0.0,0.0,0.0,0.0,0.0,0.0,0.0,0.0,0.0,-0.000740819864907,-0.00101591286984,-0.00058137051772,0.0,0.0,0.0,0.0,0.0,0.0,0.0,0.0,0.0,-0.007294075125,0.00238078825,9.8097863194,0.0,0.0,0.0,0.0,0.0,0.0,0.0,0.0,0.0
1716886421357242549,89891,1716886421356550309,imu_link,0.000938045208581,-0.0156022920305,-0.202185832884,0.979222435168,0.0,0.0,0.0,0.0,0.0,0.0,0.0,0.0,0.0,-0.000208707198501,-0.00101591286984,-0.00058137051772,0.0,0.0,0.0,0.0,0.0,0.0,0.0,0.0,0.0,-0.00656165325,0.003113210125,9.80954217877,0.0,0.0,0.0,0.0,0.0,0.0,0.0,0.0,0.0
1716886421522312438,89892,1716886421521563974,imu_link,0.000207087981299,0.000801735236657,-0.202261224183,0.979331257301,0.0,0.0,0.0,0.0,0.0,0.0,0.0,0.0,0.0,0.000323405351489,-0.00101591286984,-0.00058137051772,0.0,0.0,0.0,0.0,0.0,0.0,0.0,0.0,0.0,-0.00656165325,0.003113210125,9.80984735455,0.0,0.0,0.0,0.0,0.0,0.0,0.0,0.0,0.0
1716886421687421345,89893,1716886421686564160,imu_link,0.00102721490474,-0.0157155709183,-0.202279155965,0.97920126058,0.0,0.0,0.0,0.0,0.0,0.0,0.0,0.0,0.0,-0.000208707198501,-0.000483800203432,-0.00058137051772,0.0,0.0,0.0,0.0,0.0,0.0,0.0,0.0,0.0,-0.006805793875,0.0032352804375,9.80990838971,0.0,0.0,0.0,0.0,0.0,0.0,0.0,0.0,0.0
1716886421853298405,89894,1716886421852635637,imu_link,0.000150694394174,0.000759218792639,-0.202312844878,0.979320638849,0.0,0.0,0.0,0.0,0.0,0.0,0.0,0.0,0.0,-0.000208707198501,-0.00154802541983,-4.92579095214e-05,0.0,0.0,0.0,0.0,0.0,0.0,0.0,0.0,0.0,-0.00650061809375,0.003113210125,9.81057977643,0.0,0.0,0.0,0.0,0.0,0.0,0.0,0.0,0.0
1716886422018616659,89895,1716886422017516267,imu_link,0.00102722552376,-0.0157795680099,-0.2022884001,0.979198321703,0.0,0.0,0.0,0.0,0.0,0.0,0.0,0.0,0.0,-0.000740819864907,-0.00101591286984,-4.92579095214e-05,0.0,0.0,0.0,0.0,0.0,0.0,0.0,0.0,0.0,-0.00625647746875,0.0022587179375,9.81003046002,0.0,0.0,0.0,0.0,0.0,0.0,0.0,0.0,0.0
1716886422184226319,89896,1716886422182554977,imu_link,8.94027323917e-05,0.000688480347131,-0.202321856867,0.979318836864,0.0,0.0,0.0,0.0,0.0,0.0,0.0,0.0,0.0,-0.000740819864907,-0.000483800203432,-4.92579095214e-05,0.0,0.0,0.0,0.0,0.0,0.0,0.0,0.0,0.0,-0.00686682903125,0.002136647625,9.81051874127,0.0,0.0,0.0,0.0,0.0,0.0,0.0,0.0,0.0
1716886422348242195,89897,1716886422347578854,imu_link,0.00497581848134,-0.0150864943897,-0.202338584512,0.979186772855,0.0,0.0,0.0,0.0,0.0,0.0,0.0,0.0,0.0,-0.000740819864907,-0.000483800203432,-0.00058137051772,0.0,0.0,0.0,0.0,0.0,0.0,0.0,0.0,0.0,-0.00723303996875,0.0025028585625,9.8103356358,0.0,0.0,0.0,0.0,0.0,0.0,0.0,0.0,0.0
1716886422514254173,89898,1716886422512562053,imu_link,4.81937734244e-05,0.000645374426872,-0.202372999031,0.979308302034,0.0,0.0,0.0,0.0,0.0,0.0,0.0,0.0,0.0,-0.000208707198501,-0.000483800203432,-4.92579095214e-05,0.0,0.0,0.0,0.0,0.0,0.0,0.0,0.0,0.0,-0.0066837235625,0.00238078825,9.81057977643,0.0,0.0,0.0,0.0,0.0,0.0,0.0,0.0,0.0
1716886422679175481,89899,1716886422677540598,imu_link,0.00701605899087,-0.0143485949343,-0.202303084931,0.979192705532,0.0,0.0,0.0,0.0,0.0,0.0,0.0,0.0,0.0,-0.000208707198501,-0.000483800203432,0.000482854698677,0.0,0.0,0.0,0.0,0.0,0.0,0.0,0.0,0.0,-0.0069278641875,0.00256389371875,9.81021356549,0.0,0.0,0.0,0.0,0.0,0.0,0.0,0.0,0.0
1716886422843255652,89900,1716886422842561816,imu_link,3.34858646038e-05,0.000556717042761,-0.202339170996,0.979315346977,0.0,0.0,0.0,0.0,0.0,0.0,0.0,0.0,0.0,-0.000208707198501,-0.00101591286984,-4.92579095214e-05,0.0,0.0,0.0,0.0,0.0,0.0,0.0,0.0,0.0,-0.00674475871875,0.0029911398125,9.81027460065,0.0,0.0,0.0,0.0,0.0,0.0,0.0,0.0,0.0
1716886423008176320,89901,1716886423007569126,imu_link,0.00863985647043,-0.0136091975819,-0.202354689717,0.979179616909,0.0,0.0,0.0,0.0,0.0,0.0,0.0,0.0,0.0,-0.000208707198501,-0.00101591286984,-0.00058137051772,0.0,0.0,0.0,0.0,0.0,0.0,0.0,0.0,0.0,-0.0070499345,0.00195354215625,9.81027460065,0.0,0.0,0.0,0.0,0.0,0.0,0.0,0.0,0.0
1716886423173300993,89902,1716886423172594786,imu_link,2.42564064734e-05,0.000502011286873,-0.202434774334,0.979295619074,0.0,0.0,0.0,0.0,0.0,0.0,0.0,0.0,0.0,-0.000740819864907,-0.000483800203432,-0.00058137051772,0.0,0.0,0.0,0.0,0.0,0.0,0.0,0.0,0.0,-0.0074161454375,0.0025028585625,9.81021356549,0.0,0.0,0.0,0.0,0.0,0.0,0.0,0.0,0.0
1716886423338355151,89903,1716886423337529085,imu_link,0.0110098661468,-0.0118455258914,-0.202449554837,0.979159151574,0.0,0.0,0.0,0.0,0.0,0.0,0.0,0.0,0.0,-0.000208707198501,-0.000483800203432,-0.00058137051772,0.0,0.0,0.0,0.0,0.0,0.0,0.0,0.0,0.0,-0.0066837235625,0.00256389371875,9.81021356549,0.0,0.0,0.0,0.0,0.0,0.0,0.0,0.0,0.0
1716886423504392139,89904,1716886423502559698,imu_link,3.98796782885e-06,0.000426537324364,-0.202530120384,0.97927594088,0.0,0.0,0.0,0.0,0.0,0.0,0.0,0.0,0.0,-0.000208707198501,-0.00101591286984,-0.00058137051772,0.0,0.0,0.0,0.0,0.0,0.0,0.0,0.0,0.0,-0.006805793875,0.0027469991875,9.8097863194,0.0,0.0,0.0,0.0,0.0,0.0,0.0,0.0,0.0
1716886423668265223,89905,1716886423667574496,imu_link,0.0138750118003,-0.00845649374378,-0.202501494483,0.979147137305,0.0,0.0,0.0,0.0,0.0,0.0,0.0,0.0,0.0,-0.000740819864907,-0.000483800203432,-4.92579095214e-05,0.0,0.0,0.0,0.0,0.0,0.0,0.0,0.0,0.0,-0.0064395829375,0.0029911398125,9.81009149518,0.0,0.0,0.0,0.0,0.0,0.0,0.0,0.0,0.0
1716886423833173123,89906,1716886423832564581,imu_link,-5.95347238393e-05,0.000381901518166,-0.20253959067,0.979273998847,0.0,0.0,0.0,0.0,0.0,0.0,0.0,0.0,0.0,-0.000208707198501,-0.00101591286984,-4.92579095214e-05,0.0,0.0,0.0,0.0,0.0,0.0,0.0,0.0,0.0,-0.00656165325,0.00329631559375,9.81039667096,0.0,0.0,0.0,0.0,0.0,0.0,0.0,0.0,0.0
1716886423998188964,89907,1716886423997617757,imu_link,0.0157531153208,-0.00424558622359,-0.202553904047,0.979135195114,0.0,0.0,0.0,0.0,0.0,0.0,0.0,0.0,0.0,-0.000740819864907,-0.00154802541983,-0.00058137051772,0.0,0.0,0.0,0.0,0.0,0.0,0.0,0.0,0.0,-0.0066837235625,0.0027469991875,9.81015253034,0.0,0.0,0.0,0.0,0.0,0.0,0.0,0.0,0.0
1716886424163401881,89908,1716886424162587470,imu_link,-0.000179134858837,0.000282877492818,-0.202592645164,0.979263043322,0.0,0.0,0.0,0.0,0.0,0.0,0.0,0.0,0.0,-0.000740819864907,-0.00154802541983,-4.92579095214e-05,0.0,0.0,0.0,0.0,0.0,0.0,0.0,0.0,0.0,-0.0066837235625,0.00305217496875,9.81015253034,0.0,0.0,0.0,0.0,0.0,0.0,0.0,0.0,0.0
1716886424328415593,89909,1716886424327507777,imu_link,0.01629483591,-0.00032129000779,-0.202565241183,0.979133136075,0.0,0.0,0.0,0.0,0.0,0.0,0.0,0.0,0.0,-0.000208707198501,-0.000483800203432,-4.92579095214e-05,0.0,0.0,0.0,0.0,0.0,0.0,0.0,0.0,0.0,-0.00613440715625,0.00378459684375,9.81070184674,0.0,0.0,0.0,0.0,0.0,0.0,0.0,0.0,0.0
1716886424493533378,89910,1716886424492576000,imu_link,-0.000246315671745,0.000211631828417,-0.202558944523,0.979270018194,0.0,0.0,0.0,0.0,0.0,0.0,0.0,0.0,0.0,-0.000208707198501,-0.00101591286984,0.000482854698677,0.0,0.0,0.0,0.0,0.0,0.0,0.0,0.0,0.0,-0.0061954423125,0.0034794210625,9.81070184674,0.0,0.0,0.0,0.0,0.0,0.0,0.0,0.0,0.0
1716886424658482870,89911,1716886424657551732,imu_link,0.0157861229168,0.00404226032266,-0.202531752922,0.979140106171,0.0,0.0,0.0,0.0,0.0,0.0,0.0,0.0,0.0,0.000323405351489,-0.00101591286984,-4.92579095214e-05,0.0,0.0,0.0,0.0,0.0,0.0,0.0,0.0,0.0,-0.00711096965625,0.00293010465625,9.81045770612,0.0,0.0,0.0,0.0,0.0,0.0,0.0,0.0,0.0
1716886424823193160,89912,1716886424822538651,imu_link,-0.000293435309938,0.000157801078821,-0.202567121438,0.979268323958,0.0,0.0,0.0,0.0,0.0,0.0,0.0,0.0,0.0,-0.000208707198501,-0.000483800203432,-4.92579095214e-05,0.0,0.0,0.0,0.0,0.0,0.0,0.0,0.0,0.0,-0.00656165325,0.00244182340625,9.80996942487,0.0,0.0,0.0,0.0,0.0,0.0,0.0,0.0,0.0
1716886424989252802,89913,1716886424987554509,imu_link,0.0154662907741,0.00494651008304,-0.202583525073,0.979130349472,0.0,0.0,0.0,0.0,0.0,0.0,0.0,0.0,0.0,-0.000208707198501,-0.00101591286984,-0.00058137051772,0.0,0.0,0.0,0.0,0.0,0.0,0.0,0.0,0.0,-0.006805793875,0.0027469991875,9.81088495221,0.0,0.0,0.0,0.0,0.0,0.0,0.0,0.0,0.0
1716886425153388777,89914,1716886425152543318,imu_link,-0.000311193402063,3.96305335438e-05,-0.202619054904,0.979257586224,0.0,0.0,0.0,0.0,0.0,0.0,0.0,0.0,0.0,0.000323405351489,-0.00101591286984,-4.92579095214e-05,0.0,0.0,0.0,0.0,0.0,0.0,0.0,0.0,0.0,-0.00656165325,0.0032352804375,9.81039667096,0.0,0.0,0.0,0.0,0.0,0.0,0.0,0.0,0.0
1716886425318101635,89915,1716886425317508709,imu_link,0.0145186677492,0.00721908137462,-0.202593619293,0.979128652718,0.0,0.0,0.0,0.0,0.0,0.0,0.0,0.0,0.0,-0.000208707198501,-0.000483800203432,-4.92579095214e-05,0.0,0.0,0.0,0.0,0.0,0.0,0.0,0.0,0.0,-0.00625647746875,0.002624928875,9.81045770612,0.0,0.0,0.0,0.0,0.0,0.0,0.0,0.0,0.0
1716886425483244184,89916,1716886425482543528,imu_link,-0.000368735763281,-5.13429451382e-06,-0.202627416653,0.979255836862,0.0,0.0,0.0,0.0,0.0,0.0,0.0,0.0,0.0,-0.000208707198501,-0.000483800203432,-4.92579095214e-05,0.0,0.0,0.0,0.0,0.0,0.0,0.0,0.0,0.0,-0.00637854778125,0.002624928875,9.81003046002,0.0,0.0,0.0,0.0,0.0,0.0,0.0,0.0,0.0
1716886425649385594,89917,1716886425647567945,imu_link,0.0140966348833,0.00786697139792,-0.202602210243,0.979128050896,0.0,0.0,0.0,0.0,0.0,0.0,0.0,0.0,0.0,-0.000208707198501,-0.000483800203432,-4.92579095214e-05,0.0,0.0,0.0,0.0,0.0,0.0,0.0,0.0,0.0,-0.00674475871875,0.0027469991875,9.81003046002,0.0,0.0,0.0,0.0,0.0,0.0,0.0,0.0,0.0
1716886425813454051,89918,1716886425812617735,imu_link,-0.00044479680993,-8.94842608122e-05,-0.202679417244,0.979245039801,0.0,0.0,0.0,0.0,0.0,0.0,0.0,0.0,0.0,-0.000208707198501,-0.00101591286984,-0.00058137051772,0.0,0.0,0.0,0.0,0.0,0.0,0.0,0.0,0.0,-0.00656165325,0.002136647625,9.8097863194,0.0,0.0,0.0,0.0,0.0,0.0,0.0,0.0,0.0
1716886425978195773,89919,1716886425977554830,imu_link,0.0136974720501,0.00831809728165,-0.202654939237,0.979119075557,0.0,0.0,0.0,0.0,0.0,0.0,0.0,0.0,0.0,-0.000208707198501,-0.000483800203432,-4.92579095214e-05,0.0,0.0,0.0,0.0,0.0,0.0,0.0,0.0,0.0,-0.0066837235625,0.00293010465625,9.81045770612,0.0,0.0,0.0,0.0,0.0,0.0,0.0,0.0,0.0
1716886426143445491,89920,1716886426142550464,imu_link,-0.00045708721537,-0.000171082034001,-0.202687838125,0.979243280333,0.0,0.0,0.0,0.0,0.0,0.0,0.0,0.0,0.0,0.000323405351489,-0.000483800203432,-4.92579095214e-05,0.0,0.0,0.0,0.0,0.0,0.0,0.0,0.0,0.0,-0.006805793875,0.00354045621875,9.80990838971,0.0,0.0,0.0,0.0,0.0,0.0,0.0,0.0,0.0
